[
  {
    "id": "c1",
    "name": "Municipality of Likovrisi-Pefki",
    "category": "Municipality",
    "contact": "",
    "phone": "",
    "email": "",
    "address": "",
    "afm": "",
    "notes": "",
    "lat": 38.0697,
    "lng": 23.7867
  },
  {
    "id": "c2",
    "name": "Centre of Greek language",
    "category": "Public Body",
    "contact": "",
    "phone": "",
    "email": "",
    "address": "",
    "afm": "",
    "notes": "",
    "lat": 40.6401,
    "lng": 22.9444
  },
  {
    "id": "c3",
    "name": "General Hospital of Kalamata",
    "category": "Hospital",
    "contact": "",
    "phone": "",
    "email": "",
    "address": "",
    "afm": "",
    "notes": "",
    "lat": 37.0388,
    "lng": 22.1143
  },
  {
    "id": "c4",
    "name": "General Hospital-Health Center of Filiates",
    "category": "Hospital",
    "contact": "",
    "phone": "",
    "email": "",
    "address": "",
    "afm": "",
    "notes": "",
    "lat": 39.6085,
    "lng": 20.3892
  },
  {
    "id": "c5",
    "name": "University of Thraki",
    "category": "University",
    "contact": "",
    "phone": "",
    "email": "",
    "address": "",
    "afm": "",
    "notes": "",
    "lat": 40.9333,
    "lng": 25.9
  },
  {
    "id": "c6",
    "name": "Municipality of Sidiki",
    "category": "Municipality",
    "contact": "",
    "phone": "",
    "email": "",
    "address": "",
    "afm": "",
    "notes": "",
    "lat": 41.1833,
    "lng": 24.2833
  },
  {
    "id": "c7",
    "name": "Municipality of Serres",
    "category": "Municipality",
    "contact": "",
    "phone": "",
    "email": "",
    "address": "",
    "afm": "",
    "notes": "",
    "lat": 41.0858,
    "lng": 23.5472
  },
  {
    "id": "c8",
    "name": "Municipality of Kilkis",
    "category": "Municipality",
    "contact": "",
    "phone": "",
    "email": "",
    "address": "",
    "afm": "",
    "notes": "",
    "lat": 40.9936,
    "lng": 22.8753
  },
  {
    "id": "c9",
    "name": "General Hospital of Kastoria",
    "category": "Hospital",
    "contact": "",
    "phone": "",
    "email": "",
    "address": "",
    "afm": "",
    "notes": "",
    "lat": 40.5178,
    "lng": 21.2686
  },
  {
    "id": "c10",
    "name": "Municipality of Lefkada",
    "category": "Municipality",
    "contact": "",
    "phone": "",
    "email": "",
    "address": "",
    "afm": "",
    "notes": "",
    "lat": 38.8333,
    "lng": 20.7
  },
  {
    "id": "c11",
    "name": "Municipality of Nemea",
    "category": "Municipality",
    "contact": "",
    "phone": "",
    "email": "",
    "address": "",
    "afm": "",
    "notes": "",
    "lat": 37.8178,
    "lng": 22.6606
  },
  {
    "id": "c12",
    "name": "University of Ioannina",
    "category": "University",
    "contact": "",
    "phone": "",
    "email": "",
    "address": "",
    "afm": "",
    "notes": "",
    "lat": 39.665,
    "lng": 20.8537
  },
  {
    "id": "c13",
    "name": "Municipality of Faistos",
    "category": "Municipality",
    "contact": "",
    "phone": "",
    "email": "",
    "address": "",
    "afm": "",
    "notes": "",
    "lat": 35.0522,
    "lng": 24.8264
  },
  {
    "id": "c14",
    "name": "Hellenic Centre for Defence Innovation (ELKAK)",
    "category": "Defence",
    "contact": "",
    "phone": "",
    "email": "",
    "address": "",
    "afm": "",
    "notes": "",
    "lat": 37.9838,
    "lng": 23.7275
  },
  {
    "id": "c15",
    "name": "General Hospital of Aetoloakarnania Messolonghi Unit “Hatzikosta”",
    "category": "Hospital",
    "contact": "",
    "phone": "",
    "email": "",
    "address": "",
    "afm": "",
    "notes": "",
    "lat": 38.3683,
    "lng": 21.4312
  },
  {
    "id": "c16",
    "name": "Municipality Of Palaio Faliro",
    "category": "Municipality",
    "contact": "",
    "phone": "",
    "email": "",
    "address": "",
    "afm": "",
    "notes": "",
    "lat": 37.9283,
    "lng": 23.7011
  },
  {
    "id": "c17",
    "name": "General Hospital of Lefkada",
    "category": "Hospital",
    "contact": "",
    "phone": "",
    "email": "",
    "address": "",
    "afm": "",
    "notes": "",
    "lat": 38.8337,
    "lng": 20.7056
  },
  {
    "id": "c18",
    "name": "General Hospital \"Venizeleio\"",
    "category": "Hospital",
    "contact": "",
    "phone": "",
    "email": "",
    "address": "",
    "afm": "",
    "notes": "",
    "lat": 35.3197,
    "lng": 25.11
  },
  {
    "id": "c19",
    "name": "Municipality of Domokos",
    "category": "Municipality",
    "contact": "",
    "phone": "",
    "email": "",
    "address": "",
    "afm": "",
    "notes": "",
    "lat": 39.1167,
    "lng": 22.3
  },
  {
    "id": "c20",
    "name": "General Hospital of Arta",
    "category": "Hospital",
    "contact": "",
    "phone": "",
    "email": "",
    "address": "",
    "afm": "",
    "notes": "",
    "lat": 39.1603,
    "lng": 20.9886
  },
  {
    "id": "c21",
    "name": "Municipality of Amarousion",
    "category": "Municipality",
    "contact": "",
    "phone": "",
    "email": "",
    "address": "",
    "afm": "",
    "notes": "",
    "lat": 38.0564,
    "lng": 23.8093
  },
  {
    "id": "c22",
    "name": "National Rehabilitation Center EKA",
    "category": "Public Body",
    "contact": "",
    "phone": "",
    "email": "",
    "address": "",
    "afm": "",
    "notes": "",
    "lat": 38.1833,
    "lng": 23.8167
  },
  {
    "id": "c23",
    "name": "Municipality of Agrinio",
    "category": "Municipality",
    "contact": "",
    "phone": "",
    "email": "",
    "address": "",
    "afm": "",
    "notes": "",
    "lat": 38.6214,
    "lng": 21.4078
  },
  {
    "id": "c24",
    "name": "Municipality of Igoumenitsa",
    "category": "Municipality",
    "contact": "",
    "phone": "",
    "email": "",
    "address": "",
    "afm": "",
    "notes": "",
    "lat": 39.5025,
    "lng": 20.2675
  },
  {
    "id": "c25",
    "name": "\"Paidon Pentelis\" Children's Hospital",
    "category": "Hospital",
    "contact": "",
    "phone": "",
    "email": "",
    "address": "",
    "afm": "",
    "notes": "",
    "lat": 38.0525,
    "lng": 23.8617
  },
  {
    "id": "c26",
    "name": "NATO Communications and Information Agency",
    "category": "Municipality",
    "contact": "",
    "phone": "",
    "email": "",
    "address": "",
    "afm": "",
    "notes": "",
    "lat": 37.9838,
    "lng": 23.7275
  },
  {
    "id": "c27",
    "name": "European Union Agency for Cybersecurity (ENISA)",
    "category": "Other",
    "contact": "",
    "phone": "",
    "email": "",
    "address": "",
    "afm": "",
    "notes": "",
    "lat": 37.9925,
    "lng": 23.7339
  },
  {
    "id": "c28",
    "name": "Hellenic Post (ELTA) (Growthfund)",
    "category": "Other",
    "contact": "",
    "phone": "",
    "email": "",
    "address": "",
    "afm": "",
    "notes": "",
    "lat": 37.9785,
    "lng": 23.7337
  },
  {
    "id": "c29",
    "name": "Athens Water Supply and Sewerage Company (EYDAP)",
    "category": "Other",
    "contact": "",
    "phone": "",
    "email": "",
    "address": "",
    "afm": "",
    "notes": "",
    "lat": 38.01,
    "lng": 23.78
  },
  {
    "id": "c30",
    "name": "Municipality of Kalavrita",
    "category": "Municipality",
    "contact": "",
    "phone": "",
    "email": "",
    "address": "",
    "afm": "",
    "notes": "",
    "lat": 38.0333,
    "lng": 22.1167
  },
  {
    "id": "c31",
    "name": "Ministry of Infrastructure and Transport",
    "category": "Ministry",
    "contact": "",
    "phone": "",
    "email": "",
    "address": "",
    "afm": "",
    "notes": "",
    "lat": 37.976,
    "lng": 23.7355
  },
  {
    "id": "c32",
    "name": "Municipality of Tinos",
    "category": "Municipality",
    "contact": "",
    "phone": "",
    "email": "",
    "address": "",
    "afm": "",
    "notes": "",
    "lat": 37.5389,
    "lng": 25.1625
  },
  {
    "id": "c33",
    "name": "Municipality of Messini",
    "category": "Municipality",
    "contact": "",
    "phone": "",
    "email": "",
    "address": "",
    "afm": "",
    "notes": "",
    "lat": 37.05,
    "lng": 22.0028
  },
  {
    "id": "c34",
    "name": "Municipality of Karditsa",
    "category": "Municipality",
    "contact": "",
    "phone": "",
    "email": "",
    "address": "",
    "afm": "",
    "notes": "",
    "lat": 39.3636,
    "lng": 21.9214
  },
  {
    "id": "c35",
    "name": "Municipality of Nafplio",
    "category": "Municipality",
    "contact": "",
    "phone": "",
    "email": "",
    "address": "",
    "afm": "",
    "notes": "",
    "lat": 37.5681,
    "lng": 22.8008
  },
  {
    "id": "c36",
    "name": "Municipality of Farsala",
    "category": "Municipality",
    "contact": "",
    "phone": "",
    "email": "",
    "address": "",
    "afm": "",
    "notes": "",
    "lat": 39.2892,
    "lng": 22.3856
  },
  {
    "id": "c37",
    "name": "Municipality of Nea Smyrni",
    "category": "Municipality",
    "contact": "",
    "phone": "",
    "email": "",
    "address": "",
    "afm": "",
    "notes": "",
    "lat": 37.9441,
    "lng": 23.7161
  },
  {
    "id": "c38",
    "name": "Municipality of Keratsini-Drapetsona",
    "category": "Municipality",
    "contact": "",
    "phone": "",
    "email": "",
    "address": "",
    "afm": "",
    "notes": "",
    "lat": 37.9616,
    "lng": 23.6169
  },
  {
    "id": "c39",
    "name": "Municipality of Agioi Anargyroi-Kamatero",
    "category": "Municipality",
    "contact": "",
    "phone": "",
    "email": "",
    "address": "",
    "afm": "",
    "notes": "",
    "lat": 38.0136,
    "lng": 23.7019
  },
  {
    "id": "c40",
    "name": "Municipality of Orestiada",
    "category": "Municipality",
    "contact": "",
    "phone": "",
    "email": "",
    "address": "",
    "afm": "",
    "notes": "",
    "lat": 41.5022,
    "lng": 26.5294
  },
  {
    "id": "c41",
    "name": "Municipality of Agia Varvara",
    "category": "Municipality",
    "contact": "",
    "phone": "",
    "email": "",
    "address": "",
    "afm": "",
    "notes": "",
    "lat": 37.9756,
    "lng": 23.6583
  },
  {
    "id": "c42",
    "name": "Municipality of Almopia",
    "category": "Municipality",
    "contact": "",
    "phone": "",
    "email": "",
    "address": "",
    "afm": "",
    "notes": "",
    "lat": 40.9167,
    "lng": 22.1167
  },
  {
    "id": "c43",
    "name": "Municipality of Alexandreia",
    "category": "Municipality",
    "contact": "",
    "phone": "",
    "email": "",
    "address": "",
    "afm": "",
    "notes": "",
    "lat": 40.6278,
    "lng": 22.4481
  },
  {
    "id": "c44",
    "name": "Municipality of Nestos",
    "category": "Municipality",
    "contact": "",
    "phone": "",
    "email": "",
    "address": "",
    "afm": "",
    "notes": "",
    "lat": 41.1,
    "lng": 24.4667
  },
  {
    "id": "c45",
    "name": "Municipality of Amyntaio",
    "category": "Municipality",
    "contact": "",
    "phone": "",
    "email": "",
    "address": "",
    "afm": "",
    "notes": "",
    "lat": 40.6861,
    "lng": 21.68
  },
  {
    "id": "c46",
    "name": "Municipality of Larissa",
    "category": "Municipality",
    "contact": "",
    "phone": "",
    "email": "",
    "address": "",
    "afm": "",
    "notes": "",
    "lat": 39.639,
    "lng": 22.4191
  },
  {
    "id": "c47",
    "name": "Municipality of Oraiokastro",
    "category": "Municipality",
    "contact": "",
    "phone": "",
    "email": "",
    "address": "",
    "afm": "",
    "notes": "",
    "lat": 40.7211,
    "lng": 22.9292
  },
  {
    "id": "c48",
    "name": "Municipality of Nea Propontida",
    "category": "Municipality",
    "contact": "",
    "phone": "",
    "email": "",
    "address": "",
    "afm": "",
    "notes": "",
    "lat": 40.4,
    "lng": 23.0833
  },
  {
    "id": "c50",
    "name": "Municipality of Philothei-Psychiko",
    "category": "Municipality",
    "contact": "",
    "phone": "",
    "email": "",
    "address": "",
    "afm": "",
    "notes": "",
    "lat": 38.0044,
    "lng": 23.7703
  },
  {
    "id": "c51",
    "name": "Municipality of Argostoli",
    "category": "Municipality",
    "contact": "",
    "phone": "",
    "email": "",
    "address": "",
    "afm": "",
    "notes": "",
    "lat": 38.1736,
    "lng": 20.4889
  },
  {
    "id": "c52",
    "name": "NSS Limited",
    "category": "Other",
    "contact": "",
    "phone": "",
    "email": "",
    "address": "",
    "afm": "",
    "notes": "",
    "lat": 37.9838,
    "lng": 23.7275
  },
  {
    "id": "c53",
    "name": "Municipality of Amfikleia-Elateia",
    "category": "Municipality",
    "contact": "",
    "phone": "",
    "email": "",
    "address": "",
    "afm": "",
    "notes": "",
    "lat": 38.65,
    "lng": 22.5833
  },
  {
    "id": "c54",
    "name": "Municipality of Arta",
    "category": "Municipality",
    "contact": "",
    "phone": "",
    "email": "",
    "address": "",
    "afm": "",
    "notes": "",
    "lat": 39.1603,
    "lng": 20.9886
  },
  {
    "id": "c55",
    "name": "Municipality of Katerini",
    "category": "Municipality",
    "contact": "",
    "phone": "",
    "email": "",
    "address": "",
    "afm": "",
    "notes": "",
    "lat": 40.2703,
    "lng": 22.5019
  },
  {
    "id": "c56",
    "name": "Municipality of Iraklio Attikis",
    "category": "Municipality",
    "contact": "",
    "phone": "",
    "email": "",
    "address": "",
    "afm": "",
    "notes": "",
    "lat": 38.0289,
    "lng": 23.8117
  },
  {
    "id": "c57",
    "name": "Municipality of Aigialeia",
    "category": "Municipality",
    "contact": "",
    "phone": "",
    "email": "",
    "address": "",
    "afm": "",
    "notes": "",
    "lat": 38.15,
    "lng": 22.0833
  },
  {
    "id": "c58",
    "name": "Municipality of Prosotsani",
    "category": "Municipality",
    "contact": "",
    "phone": "",
    "email": "",
    "address": "",
    "afm": "",
    "notes": "",
    "lat": 41.1833,
    "lng": 23.9667
  },
  {
    "id": "c59",
    "name": "Municipality of Ioannina",
    "category": "Municipality",
    "contact": "",
    "phone": "",
    "email": "",
    "address": "",
    "afm": "",
    "notes": "",
    "lat": 39.665,
    "lng": 20.8537
  },
  {
    "id": "c60",
    "name": "Municipality of Central Corfu & Diapontia Islands",
    "category": "Municipality",
    "contact": "",
    "phone": "",
    "email": "",
    "address": "",
    "afm": "",
    "notes": "",
    "lat": 39.6243,
    "lng": 19.9217
  },
  {
    "id": "c61",
    "name": "Municipality of Nikaia-Renti",
    "category": "Municipality",
    "contact": "",
    "phone": "",
    "email": "",
    "address": "",
    "afm": "",
    "notes": "",
    "lat": 37.9694,
    "lng": 23.655
  },
  {
    "id": "c62",
    "name": "Municipality of Kaisariani",
    "category": "Municipality",
    "contact": "",
    "phone": "",
    "email": "",
    "address": "",
    "afm": "",
    "notes": "",
    "lat": 37.975,
    "lng": 23.7608
  },
  {
    "id": "c63",
    "name": "Region of Western Greece",
    "category": "Region",
    "contact": "",
    "phone": "",
    "email": "",
    "address": "",
    "afm": "",
    "notes": "",
    "lat": 38.3,
    "lng": 21.8
  },
  {
    "id": "c64",
    "name": "Region of Central Macedonia",
    "category": "Region",
    "contact": "",
    "phone": "",
    "email": "",
    "address": "",
    "afm": "",
    "notes": "",
    "lat": 40.6401,
    "lng": 22.9444
  },
  {
    "id": "c65",
    "name": "Municipality of Glyfada",
    "category": "Municipality",
    "contact": "",
    "phone": "",
    "email": "",
    "address": "",
    "afm": "",
    "notes": "",
    "lat": 37.8778,
    "lng": 23.7525
  },
  {
    "id": "c66",
    "name": "Municipality of Thermaikos",
    "category": "Municipality",
    "contact": "",
    "phone": "",
    "email": "",
    "address": "",
    "afm": "",
    "notes": "",
    "lat": 40.5167,
    "lng": 22.9833
  },
  {
    "id": "c67",
    "name": "Municipality of Galatsi",
    "category": "Municipality",
    "contact": "",
    "phone": "",
    "email": "",
    "address": "",
    "afm": "",
    "notes": "",
    "lat": 38.0167,
    "lng": 23.75
  },
  {
    "id": "c69",
    "name": "General Hospital of Larissa \"Koutlibaneio & Triantafylleio\"",
    "category": "Hospital",
    "contact": "",
    "phone": "",
    "email": "",
    "address": "",
    "afm": "",
    "notes": "",
    "lat": 39.639,
    "lng": 22.4191
  },
  {
    "id": "c70",
    "name": "4th YPE of Macedonia and Thrake",
    "category": "Other",
    "contact": "",
    "phone": "",
    "email": "",
    "address": "",
    "afm": "",
    "notes": "",
    "lat": 40.6401,
    "lng": 22.9444
  },
  {
    "id": "c71",
    "name": "Hellenic Competition Commision",
    "category": "Other",
    "contact": "",
    "phone": "",
    "email": "",
    "address": "",
    "afm": "",
    "notes": "",
    "lat": 37.9838,
    "lng": 23.7275
  },
  {
    "id": "c72",
    "name": "Municipality Of Nea Filadelfia-Nea Halkidona",
    "category": "Municipality",
    "contact": "",
    "phone": "",
    "email": "",
    "address": "",
    "afm": "",
    "notes": "",
    "lat": 38.0353,
    "lng": 23.7611
  },
  {
    "id": "c73",
    "name": "Hellenic Anti-Money Laundering Authority (AKNEED)",
    "category": "Public Body",
    "contact": "Triantafyllopoulos",
    "role": "",
    "email": "c.triantafyllopoulos@aml-authority.gov.gr",
    "phone": "6932644541",
    "afm": "",
    "address": "",
    "notes": "",
    "lat": 37.9838,
    "lng": 23.7275
  },
  {
    "id": "c75",
    "name": "Municipality of Oichalias",
    "category": "Municipality",
    "contact": "Mitseas",
    "role": "",
    "email": "mitseasv@1423.syzefxis.gov.gr",
    "phone": "2724360300",
    "afm": "",
    "address": "",
    "notes": "",
    "lat": 37.2,
    "lng": 21.8833
  },
  {
    "id": "c76",
    "name": "Municipality of Chalandri",
    "category": "Municipality",
    "contact": "Alex Mavraganis",
    "role": "Vice Mayor",
    "email": "",
    "phone": "",
    "afm": "",
    "address": "",
    "notes": "",
    "lat": 38.0214,
    "lng": 23.7975
  },
  {
    "id": "c77",
    "name": "Municipality of Abdera",
    "category": "Municipality",
    "contact": "",
    "role": "",
    "email": "",
    "phone": "",
    "afm": "",
    "address": "",
    "notes": "",
    "lat": 41.0167,
    "lng": 24.9667
  },
  {
    "id": "c78",
    "name": "Municipality of Acharnes",
    "category": "Municipality",
    "contact": "",
    "role": "",
    "email": "",
    "phone": "",
    "afm": "",
    "address": "",
    "notes": "",
    "lat": 38.0833,
    "lng": 23.7333
  },
  {
    "id": "c79",
    "name": "Municipality of Agathonisi",
    "category": "Municipality",
    "contact": "",
    "role": "",
    "email": "",
    "phone": "",
    "afm": "",
    "address": "",
    "notes": "",
    "lat": 37.45,
    "lng": 26.9667
  },
  {
    "id": "c80",
    "name": "Municipality of Agios Dimitrios",
    "category": "Municipality",
    "contact": "",
    "role": "",
    "email": "",
    "phone": "",
    "afm": "",
    "address": "",
    "notes": "",
    "lat": 37.9333,
    "lng": 23.7333
  },
  {
    "id": "c81",
    "name": "Municipality of Agios Efstratios",
    "category": "Municipality",
    "contact": "",
    "role": "",
    "email": "",
    "phone": "",
    "afm": "",
    "address": "",
    "notes": "",
    "lat": 39.5333,
    "lng": 25
  },
  {
    "id": "c82",
    "name": "Municipality of Agios Nikolaos",
    "category": "Municipality",
    "contact": "",
    "role": "",
    "email": "",
    "phone": "",
    "afm": "",
    "address": "",
    "notes": "",
    "lat": 35.1917,
    "lng": 25.7167
  },
  {
    "id": "c83",
    "name": "Municipality of Agios Vasileios",
    "category": "Municipality",
    "contact": "",
    "role": "",
    "email": "",
    "phone": "",
    "afm": "",
    "address": "",
    "notes": "",
    "lat": 35.2,
    "lng": 24.4833
  },
  {
    "id": "c84",
    "name": "Municipality of Agrafa",
    "category": "Municipality",
    "contact": "",
    "role": "",
    "email": "",
    "phone": "",
    "afm": "",
    "address": "",
    "notes": "",
    "lat": 39,
    "lng": 21.6667
  },
  {
    "id": "c85",
    "name": "Municipality of Aigaleo",
    "category": "Municipality",
    "contact": "",
    "role": "",
    "email": "",
    "phone": "",
    "afm": "",
    "address": "",
    "notes": "",
    "lat": 37.9975,
    "lng": 23.6836
  },
  {
    "id": "c86",
    "name": "Municipality of Aigio",
    "category": "Municipality",
    "contact": "",
    "role": "",
    "email": "",
    "phone": "",
    "afm": "",
    "address": "",
    "notes": "",
    "lat": 38.25,
    "lng": 22.0833
  },
  {
    "id": "c87",
    "name": "Municipality of Alexandroupoli",
    "category": "Municipality",
    "contact": "",
    "role": "",
    "email": "",
    "phone": "",
    "afm": "",
    "address": "",
    "notes": "",
    "lat": 40.85,
    "lng": 25.8731
  },
  {
    "id": "c88",
    "name": "Municipality of Alimos",
    "category": "Municipality",
    "contact": "",
    "role": "",
    "email": "",
    "phone": "",
    "afm": "",
    "address": "",
    "notes": "",
    "lat": 37.9103,
    "lng": 23.7211
  },
  {
    "id": "c89",
    "name": "Municipality of Almyros",
    "category": "Municipality",
    "contact": "",
    "role": "",
    "email": "",
    "phone": "",
    "afm": "",
    "address": "",
    "notes": "",
    "lat": 39.1833,
    "lng": 22.75
  },
  {
    "id": "c90",
    "name": "Municipality of Amfissa",
    "category": "Municipality",
    "contact": "",
    "role": "",
    "email": "",
    "phone": "",
    "afm": "",
    "address": "",
    "notes": "",
    "lat": 38.5278,
    "lng": 22.3703
  },
  {
    "id": "c91",
    "name": "Municipality of Amorgos",
    "category": "Municipality",
    "contact": "",
    "role": "",
    "email": "",
    "phone": "",
    "afm": "",
    "address": "",
    "notes": "",
    "lat": 36.8333,
    "lng": 25.9
  },
  {
    "id": "c92",
    "name": "Municipality of Ampelokipoi-Menemeni",
    "category": "Municipality",
    "contact": "",
    "role": "",
    "email": "",
    "phone": "",
    "afm": "",
    "address": "",
    "notes": "",
    "lat": 40.65,
    "lng": 22.9167
  },
  {
    "id": "c93",
    "name": "Municipality of Anafi",
    "category": "Municipality",
    "contact": "",
    "role": "",
    "email": "",
    "phone": "",
    "afm": "",
    "address": "",
    "notes": "",
    "lat": 36.3667,
    "lng": 25.7667
  },
  {
    "id": "c94",
    "name": "Municipality of Andravida-Kyllini",
    "category": "Municipality",
    "contact": "",
    "role": "",
    "email": "",
    "phone": "",
    "afm": "",
    "address": "",
    "notes": "",
    "lat": 37.9167,
    "lng": 21.15
  },
  {
    "id": "c95",
    "name": "Municipality of Andros",
    "category": "Municipality",
    "contact": "",
    "role": "",
    "email": "",
    "phone": "",
    "afm": "",
    "address": "",
    "notes": "",
    "lat": 37.8333,
    "lng": 24.9333
  },
  {
    "id": "c96",
    "name": "Municipality of Ano Liossia",
    "category": "Municipality",
    "contact": "",
    "role": "",
    "email": "",
    "phone": "",
    "afm": "",
    "address": "",
    "notes": "",
    "lat": 38.0667,
    "lng": 23.7
  },
  {
    "id": "c97",
    "name": "Municipality of Antiparos",
    "category": "Municipality",
    "contact": "",
    "role": "",
    "email": "",
    "phone": "",
    "afm": "",
    "address": "",
    "notes": "",
    "lat": 37.05,
    "lng": 25.0833
  },
  {
    "id": "c98",
    "name": "Municipality of Apokoronas",
    "category": "Municipality",
    "contact": "",
    "role": "",
    "email": "",
    "phone": "",
    "afm": "",
    "address": "",
    "notes": "",
    "lat": 35.4167,
    "lng": 24.1333
  },
  {
    "id": "c99",
    "name": "Municipality of Argithea",
    "category": "Municipality",
    "contact": "",
    "role": "",
    "email": "",
    "phone": "",
    "afm": "",
    "address": "",
    "notes": "",
    "lat": 39.2833,
    "lng": 21.5833
  },
  {
    "id": "c100",
    "name": "Municipality of Argos-Mykines",
    "category": "Municipality",
    "contact": "",
    "role": "",
    "email": "",
    "phone": "",
    "afm": "",
    "address": "",
    "notes": "",
    "lat": 37.6333,
    "lng": 22.7167
  },
  {
    "id": "c101",
    "name": "Municipality of Aristotelis",
    "category": "Municipality",
    "contact": "",
    "role": "",
    "email": "",
    "phone": "",
    "afm": "",
    "address": "",
    "notes": "",
    "lat": 40.3833,
    "lng": 23.75
  },
  {
    "id": "c102",
    "name": "Municipality of Arkadi",
    "category": "Municipality",
    "contact": "",
    "role": "",
    "email": "",
    "phone": "",
    "afm": "",
    "address": "",
    "notes": "",
    "lat": 35.3,
    "lng": 24.6
  },
  {
    "id": "c103",
    "name": "Municipality of Aspropyrgos",
    "category": "Municipality",
    "contact": "",
    "role": "",
    "email": "",
    "phone": "",
    "afm": "",
    "address": "",
    "notes": "",
    "lat": 38.0667,
    "lng": 23.5833
  },
  {
    "id": "c104",
    "name": "Municipality of Astypalaia",
    "category": "Municipality",
    "contact": "",
    "role": "",
    "email": "",
    "phone": "",
    "afm": "",
    "address": "",
    "notes": "",
    "lat": 36.55,
    "lng": 26.3667
  },
  {
    "id": "c105",
    "name": "Municipality of Athens",
    "category": "Municipality",
    "contact": "",
    "role": "",
    "email": "",
    "phone": "",
    "afm": "",
    "address": "",
    "notes": "",
    "lat": 37.9838,
    "lng": 23.7275
  },
  {
    "id": "c106",
    "name": "Municipality of Avdira",
    "category": "Municipality",
    "contact": "",
    "role": "",
    "email": "",
    "phone": "",
    "afm": "",
    "address": "",
    "notes": "",
    "lat": 41.0667,
    "lng": 24.9833
  },
  {
    "id": "c107",
    "name": "Municipality of Chanion",
    "category": "Municipality",
    "contact": "",
    "role": "",
    "email": "",
    "phone": "",
    "afm": "",
    "address": "",
    "notes": "",
    "lat": 35.5139,
    "lng": 24.0181
  },
  {
    "id": "c108",
    "name": "Municipality of Chios",
    "category": "Municipality",
    "contact": "",
    "role": "",
    "email": "",
    "phone": "",
    "afm": "",
    "address": "",
    "notes": "",
    "lat": 38.3667,
    "lng": 26.1333
  },
  {
    "id": "c110",
    "name": "Municipality of Dafni-Ymittos",
    "category": "Municipality",
    "contact": "",
    "role": "",
    "email": "",
    "phone": "",
    "afm": "",
    "address": "",
    "notes": "",
    "lat": 37.95,
    "lng": 23.75
  },
  {
    "id": "c111",
    "name": "Municipality of Delphi",
    "category": "Municipality",
    "contact": "",
    "role": "",
    "email": "",
    "phone": "",
    "afm": "",
    "address": "",
    "notes": "",
    "lat": 38.4833,
    "lng": 22.5
  },
  {
    "id": "c112",
    "name": "Municipality of Delta",
    "category": "Municipality",
    "contact": "",
    "role": "",
    "email": "",
    "phone": "",
    "afm": "",
    "address": "",
    "notes": "",
    "lat": 40.75,
    "lng": 22.65
  },
  {
    "id": "c113",
    "name": "Municipality of Didymoteicho",
    "category": "Municipality",
    "contact": "",
    "role": "",
    "email": "",
    "phone": "",
    "afm": "",
    "address": "",
    "notes": "",
    "lat": 41.35,
    "lng": 26.5
  },
  {
    "id": "c114",
    "name": "Municipality of Dionysos",
    "category": "Municipality",
    "contact": "",
    "role": "",
    "email": "",
    "phone": "",
    "afm": "",
    "address": "",
    "notes": "",
    "lat": 38.1167,
    "lng": 23.8667
  },
  {
    "id": "c115",
    "name": "Municipality of Distomo-Arachova-Antikyra",
    "category": "Municipality",
    "contact": "",
    "role": "",
    "email": "",
    "phone": "",
    "afm": "",
    "address": "",
    "notes": "",
    "lat": 38.4333,
    "lng": 22.6333
  },
  {
    "id": "c116",
    "name": "Municipality of Dodoni",
    "category": "Municipality",
    "contact": "",
    "role": "",
    "email": "",
    "phone": "",
    "afm": "",
    "address": "",
    "notes": "",
    "lat": 39.55,
    "lng": 20.7833
  },
  {
    "id": "c117",
    "name": "Municipality of Dytiki Achaia",
    "category": "Municipality",
    "contact": "",
    "role": "",
    "email": "",
    "phone": "",
    "afm": "",
    "address": "",
    "notes": "",
    "lat": 38.1667,
    "lng": 21.55
  },
  {
    "id": "c118",
    "name": "Municipality of Edessa",
    "category": "Municipality",
    "contact": "",
    "role": "",
    "email": "",
    "phone": "",
    "afm": "",
    "address": "",
    "notes": "",
    "lat": 40.8011,
    "lng": 22.0444
  },
  {
    "id": "c119",
    "name": "Municipality of Elassona",
    "category": "Municipality",
    "contact": "",
    "role": "",
    "email": "",
    "phone": "",
    "afm": "",
    "address": "",
    "notes": "",
    "lat": 39.8833,
    "lng": 22.1833
  },
  {
    "id": "c120",
    "name": "Municipality of Elefsis",
    "category": "Municipality",
    "contact": "",
    "role": "",
    "email": "",
    "phone": "",
    "afm": "",
    "address": "",
    "notes": "",
    "lat": 38.0631,
    "lng": 23.5403
  },
  {
    "id": "c121",
    "name": "Municipality of Elliniko-Argyroupoli",
    "category": "Municipality",
    "contact": "",
    "role": "",
    "email": "",
    "phone": "",
    "afm": "",
    "address": "",
    "notes": "",
    "lat": 37.8833,
    "lng": 23.75
  },
  {
    "id": "c122",
    "name": "Municipality of Eordea",
    "category": "Municipality",
    "contact": "",
    "role": "",
    "email": "",
    "phone": "",
    "afm": "",
    "address": "",
    "notes": "",
    "lat": 40.5,
    "lng": 21.8333
  },
  {
    "id": "c123",
    "name": "Municipality of Epidaurus",
    "category": "Municipality",
    "contact": "",
    "role": "",
    "email": "",
    "phone": "",
    "afm": "",
    "address": "",
    "notes": "",
    "lat": 37.6333,
    "lng": 23.15
  },
  {
    "id": "c124",
    "name": "Municipality of Ermionida",
    "category": "Municipality",
    "contact": "",
    "role": "",
    "email": "",
    "phone": "",
    "afm": "",
    "address": "",
    "notes": "",
    "lat": 37.3833,
    "lng": 23.25
  },
  {
    "id": "c125",
    "name": "Municipality of Erymanthos",
    "category": "Municipality",
    "contact": "",
    "role": "",
    "email": "",
    "phone": "",
    "afm": "",
    "address": "",
    "notes": "",
    "lat": 38.1,
    "lng": 21.85
  },
  {
    "id": "c126",
    "name": "Municipality of Evrotas",
    "category": "Municipality",
    "contact": "",
    "role": "",
    "email": "",
    "phone": "",
    "afm": "",
    "address": "",
    "notes": "",
    "lat": 36.95,
    "lng": 22.5833
  },
  {
    "id": "c127",
    "name": "Municipality of Filippiada",
    "category": "Municipality",
    "contact": "",
    "role": "",
    "email": "",
    "phone": "",
    "afm": "",
    "address": "",
    "notes": "",
    "lat": 39.2167,
    "lng": 20.8833
  },
  {
    "id": "c128",
    "name": "Municipality of Florina",
    "category": "Municipality",
    "contact": "",
    "role": "",
    "email": "",
    "phone": "",
    "afm": "",
    "address": "",
    "notes": "",
    "lat": 40.7833,
    "lng": 21.4
  },
  {
    "id": "c129",
    "name": "Municipality of Folegandros",
    "category": "Municipality",
    "contact": "",
    "role": "",
    "email": "",
    "phone": "",
    "afm": "",
    "address": "",
    "notes": "",
    "lat": 36.6167,
    "lng": 24.9167
  },
  {
    "id": "c130",
    "name": "Municipality of Fourni Korseon",
    "category": "Municipality",
    "contact": "",
    "role": "",
    "email": "",
    "phone": "",
    "afm": "",
    "address": "",
    "notes": "",
    "lat": 37.5833,
    "lng": 26.5
  },
  {
    "id": "c131",
    "name": "Municipality of Gonnoi",
    "category": "Municipality",
    "contact": "",
    "role": "",
    "email": "",
    "phone": "",
    "afm": "",
    "address": "",
    "notes": "",
    "lat": 39.8667,
    "lng": 22.45
  },
  {
    "id": "c132",
    "name": "Municipality of Gortyna",
    "category": "Municipality",
    "contact": "",
    "role": "",
    "email": "",
    "phone": "",
    "afm": "",
    "address": "",
    "notes": "",
    "lat": 35.0667,
    "lng": 24.95
  },
  {
    "id": "c133",
    "name": "Municipality of Grevena",
    "category": "Municipality",
    "contact": "",
    "role": "",
    "email": "",
    "phone": "",
    "afm": "",
    "address": "",
    "notes": "",
    "lat": 40.0833,
    "lng": 21.4167
  },
  {
    "id": "c134",
    "name": "Municipality of Heraklion",
    "category": "Municipality",
    "contact": "",
    "role": "",
    "email": "",
    "phone": "",
    "afm": "",
    "address": "",
    "notes": "",
    "lat": 35.3387,
    "lng": 25.1442
  },
  {
    "id": "c135",
    "name": "Municipality of Iasmos",
    "category": "Municipality",
    "contact": "",
    "role": "",
    "email": "",
    "phone": "",
    "afm": "",
    "address": "",
    "notes": "",
    "lat": 41.1167,
    "lng": 25.1833
  },
  {
    "id": "c136",
    "name": "Municipality of Ierapetra",
    "category": "Municipality",
    "contact": "",
    "role": "",
    "email": "",
    "phone": "",
    "afm": "",
    "address": "",
    "notes": "",
    "lat": 35.01,
    "lng": 25.74
  },
  {
    "id": "c137",
    "name": "Municipality of Ikaria",
    "category": "Municipality",
    "contact": "",
    "role": "",
    "email": "",
    "phone": "",
    "afm": "",
    "address": "",
    "notes": "",
    "lat": 37.6,
    "lng": 26.1667
  },
  {
    "id": "c138",
    "name": "Municipality of Ilida",
    "category": "Municipality",
    "contact": "",
    "role": "",
    "email": "",
    "phone": "",
    "afm": "",
    "address": "",
    "notes": "",
    "lat": 37.9167,
    "lng": 21.4167
  },
  {
    "id": "c139",
    "name": "Municipality of Ilioupoli",
    "category": "Municipality",
    "contact": "",
    "role": "",
    "email": "",
    "phone": "",
    "afm": "",
    "address": "",
    "notes": "",
    "lat": 37.9333,
    "lng": 23.7667
  },
  {
    "id": "c140",
    "name": "Municipality of Ios",
    "category": "Municipality",
    "contact": "",
    "role": "",
    "email": "",
    "phone": "",
    "afm": "",
    "address": "",
    "notes": "",
    "lat": 36.7167,
    "lng": 25.3333
  },
  {
    "id": "c141",
    "name": "Municipality of Irakleia Serron",
    "category": "Municipality",
    "contact": "",
    "role": "",
    "email": "",
    "phone": "",
    "afm": "",
    "address": "",
    "notes": "",
    "lat": 41.15,
    "lng": 23.1667
  },
  {
    "id": "c142",
    "name": "Municipality of Ithaki",
    "category": "Municipality",
    "contact": "",
    "role": "",
    "email": "",
    "phone": "",
    "afm": "",
    "address": "",
    "notes": "",
    "lat": 38.3667,
    "lng": 20.7167
  },
  {
    "id": "c143",
    "name": "Municipality of Kalamata",
    "category": "Municipality",
    "contact": "",
    "role": "",
    "email": "",
    "phone": "",
    "afm": "",
    "address": "",
    "notes": "",
    "lat": 37.0388,
    "lng": 22.1143
  },
  {
    "id": "c144",
    "name": "Municipality of Kallithea",
    "category": "Municipality",
    "contact": "",
    "role": "",
    "email": "",
    "phone": "",
    "afm": "",
    "address": "",
    "notes": "",
    "lat": 37.95,
    "lng": 23.7
  },
  {
    "id": "c145",
    "name": "Municipality of Kalymnos",
    "category": "Municipality",
    "contact": "",
    "role": "",
    "email": "",
    "phone": "",
    "afm": "",
    "address": "",
    "notes": "",
    "lat": 36.95,
    "lng": 26.9833
  },
  {
    "id": "c146",
    "name": "Municipality of Kantanos-Selino",
    "category": "Municipality",
    "contact": "",
    "role": "",
    "email": "",
    "phone": "",
    "afm": "",
    "address": "",
    "notes": "",
    "lat": 35.3333,
    "lng": 23.7333
  },
  {
    "id": "c147",
    "name": "Municipality of Karpathos",
    "category": "Municipality",
    "contact": "",
    "role": "",
    "email": "",
    "phone": "",
    "afm": "",
    "address": "",
    "notes": "",
    "lat": 35.5075,
    "lng": 27.2133
  },
  {
    "id": "c148",
    "name": "Municipality of Karpenisi",
    "category": "Municipality",
    "contact": "",
    "role": "",
    "email": "",
    "phone": "",
    "afm": "",
    "address": "",
    "notes": "",
    "lat": 38.9167,
    "lng": 21.7833
  },
  {
    "id": "c149",
    "name": "Municipality of Kassos",
    "category": "Municipality",
    "contact": "",
    "role": "",
    "email": "",
    "phone": "",
    "afm": "",
    "address": "",
    "notes": "",
    "lat": 35.35,
    "lng": 26.9167
  },
  {
    "id": "c151",
    "name": "Municipality of Kastoria",
    "category": "Municipality",
    "contact": "",
    "role": "",
    "email": "",
    "phone": "",
    "afm": "",
    "address": "",
    "notes": "",
    "lat": 40.5178,
    "lng": 21.2686
  },
  {
    "id": "c152",
    "name": "Municipality of Kavala",
    "category": "Municipality",
    "contact": "",
    "role": "",
    "email": "",
    "phone": "",
    "afm": "",
    "address": "",
    "notes": "",
    "lat": 40.9398,
    "lng": 24.4035
  },
  {
    "id": "c153",
    "name": "Municipality of Kea",
    "category": "Municipality",
    "contact": "",
    "role": "",
    "email": "",
    "phone": "",
    "afm": "",
    "address": "",
    "notes": "",
    "lat": 37.65,
    "lng": 24.3333
  },
  {
    "id": "c154",
    "name": "Municipality of Kefalonia",
    "category": "Municipality",
    "contact": "",
    "role": "",
    "email": "",
    "phone": "",
    "afm": "",
    "address": "",
    "notes": "",
    "lat": 38.2,
    "lng": 20.6667
  },
  {
    "id": "c155",
    "name": "Municipality of Kerkyra",
    "category": "Municipality",
    "contact": "",
    "role": "",
    "email": "",
    "phone": "",
    "afm": "",
    "address": "",
    "notes": "",
    "lat": 39.6243,
    "lng": 19.9217
  },
  {
    "id": "c156",
    "name": "Municipality of Kifisia",
    "category": "Municipality",
    "contact": "",
    "role": "",
    "email": "",
    "phone": "",
    "afm": "",
    "address": "",
    "notes": "",
    "lat": 38.0736,
    "lng": 23.8122
  },
  {
    "id": "c157",
    "name": "Municipality of Kileler",
    "category": "Municipality",
    "contact": "",
    "role": "",
    "email": "",
    "phone": "",
    "afm": "",
    "address": "",
    "notes": "",
    "lat": 39.5167,
    "lng": 22.5167
  },
  {
    "id": "c158",
    "name": "Municipality of Kimolos",
    "category": "Municipality",
    "contact": "",
    "role": "",
    "email": "",
    "phone": "",
    "afm": "",
    "address": "",
    "notes": "",
    "lat": 36.8,
    "lng": 24.5667
  },
  {
    "id": "c159",
    "name": "Municipality of Komotini",
    "category": "Municipality",
    "contact": "",
    "role": "",
    "email": "",
    "phone": "",
    "afm": "",
    "address": "",
    "notes": "",
    "lat": 41.1189,
    "lng": 25.4019
  },
  {
    "id": "c160",
    "name": "Municipality of Konitsa",
    "category": "Municipality",
    "contact": "",
    "role": "",
    "email": "",
    "phone": "",
    "afm": "",
    "address": "",
    "notes": "",
    "lat": 40.05,
    "lng": 20.75
  },
  {
    "id": "c161",
    "name": "Municipality of Korinthia",
    "category": "Municipality",
    "contact": "",
    "role": "",
    "email": "",
    "phone": "",
    "afm": "",
    "address": "",
    "notes": "",
    "lat": 37.9333,
    "lng": 22.9333
  },
  {
    "id": "c162",
    "name": "Municipality of Koropi",
    "category": "Municipality",
    "contact": "",
    "role": "",
    "email": "",
    "phone": "",
    "afm": "",
    "address": "",
    "notes": "",
    "lat": 37.8917,
    "lng": 23.8686
  },
  {
    "id": "c163",
    "name": "Municipality of Kos",
    "category": "Municipality",
    "contact": "",
    "role": "",
    "email": "",
    "phone": "",
    "afm": "",
    "address": "",
    "notes": "",
    "lat": 36.8931,
    "lng": 27.2878
  },
  {
    "id": "c164",
    "name": "Municipality of Kozani",
    "category": "Municipality",
    "contact": "",
    "role": "",
    "email": "",
    "phone": "",
    "afm": "",
    "address": "",
    "notes": "",
    "lat": 40.3006,
    "lng": 21.7886
  },
  {
    "id": "c165",
    "name": "Municipality of Kythnos",
    "category": "Municipality",
    "contact": "",
    "role": "",
    "email": "",
    "phone": "",
    "afm": "",
    "address": "",
    "notes": "",
    "lat": 37.4,
    "lng": 24.4167
  },
  {
    "id": "c167",
    "name": "Municipality of Lamia",
    "category": "Municipality",
    "contact": "",
    "role": "",
    "email": "",
    "phone": "",
    "afm": "",
    "address": "",
    "notes": "",
    "lat": 38.8983,
    "lng": 22.4344
  },
  {
    "id": "c168",
    "name": "Municipality of Lasithi",
    "category": "Municipality",
    "contact": "",
    "role": "",
    "email": "",
    "phone": "",
    "afm": "",
    "address": "",
    "notes": "",
    "lat": 35.1833,
    "lng": 25.7
  },
  {
    "id": "c169",
    "name": "Municipality of Lavreotiki",
    "category": "Municipality",
    "contact": "",
    "role": "",
    "email": "",
    "phone": "",
    "afm": "",
    "address": "",
    "notes": "",
    "lat": 37.7167,
    "lng": 24.05
  },
  {
    "id": "c171",
    "name": "Municipality of Leros",
    "category": "Municipality",
    "contact": "",
    "role": "",
    "email": "",
    "phone": "",
    "afm": "",
    "address": "",
    "notes": "",
    "lat": 37.15,
    "lng": 26.85
  },
  {
    "id": "c173",
    "name": "Municipality of Limnos",
    "category": "Municipality",
    "contact": "",
    "role": "",
    "email": "",
    "phone": "",
    "afm": "",
    "address": "",
    "notes": "",
    "lat": 39.8833,
    "lng": 25.1167
  },
  {
    "id": "c174",
    "name": "Municipality of Livadeia",
    "category": "Municipality",
    "contact": "",
    "role": "",
    "email": "",
    "phone": "",
    "afm": "",
    "address": "",
    "notes": "",
    "lat": 38.4333,
    "lng": 22.8667
  },
  {
    "id": "c175",
    "name": "Municipality of Lokrida",
    "category": "Municipality",
    "contact": "",
    "role": "",
    "email": "",
    "phone": "",
    "afm": "",
    "address": "",
    "notes": "",
    "lat": 38.5833,
    "lng": 22.9167
  },
  {
    "id": "c176",
    "name": "Municipality of Loutraki-Agioi Theodoroi",
    "category": "Municipality",
    "contact": "",
    "role": "",
    "email": "",
    "phone": "",
    "afm": "",
    "address": "",
    "notes": "",
    "lat": 37.9667,
    "lng": 22.9833
  },
  {
    "id": "c177",
    "name": "Municipality of Makrakomi",
    "category": "Municipality",
    "contact": "",
    "role": "",
    "email": "",
    "phone": "",
    "afm": "",
    "address": "",
    "notes": "",
    "lat": 38.9667,
    "lng": 22.1
  },
  {
    "id": "c178",
    "name": "Municipality of Malevizi",
    "category": "Municipality",
    "contact": "",
    "role": "",
    "email": "",
    "phone": "",
    "afm": "",
    "address": "",
    "notes": "",
    "lat": 35.35,
    "lng": 25
  },
  {
    "id": "c179",
    "name": "Municipality of Markopoulo Mesogaias",
    "category": "Municipality",
    "contact": "",
    "role": "",
    "email": "",
    "phone": "",
    "afm": "",
    "address": "",
    "notes": "",
    "lat": 37.8833,
    "lng": 23.9333
  },
  {
    "id": "c180",
    "name": "Municipality of Maroneia-Sapes",
    "category": "Municipality",
    "contact": "",
    "role": "",
    "email": "",
    "phone": "",
    "afm": "",
    "address": "",
    "notes": "",
    "lat": 41,
    "lng": 25.5
  },
  {
    "id": "c181",
    "name": "Municipality of Megalopoli",
    "category": "Municipality",
    "contact": "",
    "role": "",
    "email": "",
    "phone": "",
    "afm": "",
    "address": "",
    "notes": "",
    "lat": 37.4,
    "lng": 22.1333
  },
  {
    "id": "c182",
    "name": "Municipality of Meganisi",
    "category": "Municipality",
    "contact": "",
    "role": "",
    "email": "",
    "phone": "",
    "afm": "",
    "address": "",
    "notes": "",
    "lat": 38.6667,
    "lng": 20.7667
  },
  {
    "id": "c183",
    "name": "Municipality of Megara",
    "category": "Municipality",
    "contact": "",
    "role": "",
    "email": "",
    "phone": "",
    "afm": "",
    "address": "",
    "notes": "",
    "lat": 37.9967,
    "lng": 23.3433
  },
  {
    "id": "c184",
    "name": "Municipality of Meteora",
    "category": "Municipality",
    "contact": "",
    "role": "",
    "email": "",
    "phone": "",
    "afm": "",
    "address": "",
    "notes": "",
    "lat": 39.7167,
    "lng": 21.6333
  },
  {
    "id": "c185",
    "name": "Municipality of Metsovo",
    "category": "Municipality",
    "contact": "",
    "role": "",
    "email": "",
    "phone": "",
    "afm": "",
    "address": "",
    "notes": "",
    "lat": 39.7667,
    "lng": 21.1833
  },
  {
    "id": "c186",
    "name": "Municipality of Milos",
    "category": "Municipality",
    "contact": "",
    "role": "",
    "email": "",
    "phone": "",
    "afm": "",
    "address": "",
    "notes": "",
    "lat": 36.7167,
    "lng": 24.4333
  },
  {
    "id": "c187",
    "name": "Municipality of Minoa Pediados",
    "category": "Municipality",
    "contact": "",
    "role": "",
    "email": "",
    "phone": "",
    "afm": "",
    "address": "",
    "notes": "",
    "lat": 35.1833,
    "lng": 25.2
  },
  {
    "id": "c188",
    "name": "Municipality of Monemvasia",
    "category": "Municipality",
    "contact": "",
    "role": "",
    "email": "",
    "phone": "",
    "afm": "",
    "address": "",
    "notes": "",
    "lat": 36.6833,
    "lng": 23.05
  },
  {
    "id": "c189",
    "name": "Municipality of Moschato-Tavros",
    "category": "Municipality",
    "contact": "",
    "role": "",
    "email": "",
    "phone": "",
    "afm": "",
    "address": "",
    "notes": "",
    "lat": 37.95,
    "lng": 23.6833
  },
  {
    "id": "c190",
    "name": "Municipality of Mouzakiou",
    "category": "Municipality",
    "contact": "",
    "role": "",
    "email": "",
    "phone": "",
    "afm": "",
    "address": "",
    "notes": "",
    "lat": 39.4333,
    "lng": 21.6667
  },
  {
    "id": "c191",
    "name": "Municipality of Mykonos",
    "category": "Municipality",
    "contact": "",
    "role": "",
    "email": "",
    "phone": "",
    "afm": "",
    "address": "",
    "notes": "",
    "lat": 37.45,
    "lng": 25.35
  },
  {
    "id": "c192",
    "name": "Municipality of Nafpaktia",
    "category": "Municipality",
    "contact": "",
    "role": "",
    "email": "",
    "phone": "",
    "afm": "",
    "address": "",
    "notes": "",
    "lat": 38.3917,
    "lng": 21.8278
  },
  {
    "id": "c193",
    "name": "Municipality of Naxos and Small Cyclades",
    "category": "Municipality",
    "contact": "",
    "role": "",
    "email": "",
    "phone": "",
    "afm": "",
    "address": "",
    "notes": "",
    "lat": 37.1,
    "lng": 25.3667
  },
  {
    "id": "c194",
    "name": "Municipality of Nea Ionia",
    "category": "Municipality",
    "contact": "",
    "role": "",
    "email": "",
    "phone": "",
    "afm": "",
    "address": "",
    "notes": "",
    "lat": 38.0333,
    "lng": 23.75
  },
  {
    "id": "c195",
    "name": "Municipality of Nea Zichni",
    "category": "Municipality",
    "contact": "",
    "role": "",
    "email": "",
    "phone": "",
    "afm": "",
    "address": "",
    "notes": "",
    "lat": 41.0333,
    "lng": 23.8167
  },
  {
    "id": "c196",
    "name": "Municipality of Neapoli-Sykies",
    "category": "Municipality",
    "contact": "",
    "role": "",
    "email": "",
    "phone": "",
    "afm": "",
    "address": "",
    "notes": "",
    "lat": 40.6667,
    "lng": 22.9667
  },
  {
    "id": "c197",
    "name": "Municipality of Nikopoli",
    "category": "Municipality",
    "contact": "",
    "role": "",
    "email": "",
    "phone": "",
    "afm": "",
    "address": "",
    "notes": "",
    "lat": 39,
    "lng": 20.75
  },
  {
    "id": "c198",
    "name": "Municipality of Nisyros",
    "category": "Municipality",
    "contact": "",
    "role": "",
    "email": "",
    "phone": "",
    "afm": "",
    "address": "",
    "notes": "",
    "lat": 36.5833,
    "lng": 27.1667
  },
  {
    "id": "c199",
    "name": "Municipality of Oinousses",
    "category": "Municipality",
    "contact": "",
    "role": "",
    "email": "",
    "phone": "",
    "afm": "",
    "address": "",
    "notes": "",
    "lat": 38.5167,
    "lng": 26.2333
  },
  {
    "id": "c200",
    "name": "Municipality of Oropos",
    "category": "Municipality",
    "contact": "",
    "role": "",
    "email": "",
    "phone": "",
    "afm": "",
    "address": "",
    "notes": "",
    "lat": 38.3,
    "lng": 23.7833
  },
  {
    "id": "c201",
    "name": "Municipality of Paiania",
    "category": "Municipality",
    "contact": "",
    "role": "",
    "email": "",
    "phone": "",
    "afm": "",
    "address": "",
    "notes": "",
    "lat": 37.95,
    "lng": 23.85
  },
  {
    "id": "c202",
    "name": "Municipality of Palamas",
    "category": "Municipality",
    "contact": "",
    "role": "",
    "email": "",
    "phone": "",
    "afm": "",
    "address": "",
    "notes": "",
    "lat": 39.4667,
    "lng": 22.0833
  },
  {
    "id": "c203",
    "name": "Municipality of Pallini",
    "category": "Municipality",
    "contact": "",
    "role": "",
    "email": "",
    "phone": "",
    "afm": "",
    "address": "",
    "notes": "",
    "lat": 38,
    "lng": 23.8667
  },
  {
    "id": "c204",
    "name": "Municipality of Parga",
    "category": "Municipality",
    "contact": "",
    "role": "",
    "email": "",
    "phone": "",
    "afm": "",
    "address": "",
    "notes": "",
    "lat": 39.2833,
    "lng": 20.4
  },
  {
    "id": "c205",
    "name": "Municipality of Paros",
    "category": "Municipality",
    "contact": "",
    "role": "",
    "email": "",
    "phone": "",
    "afm": "",
    "address": "",
    "notes": "",
    "lat": 37.0833,
    "lng": 25.15
  },
  {
    "id": "c206",
    "name": "Municipality of Patmos",
    "category": "Municipality",
    "contact": "",
    "role": "",
    "email": "",
    "phone": "",
    "afm": "",
    "address": "",
    "notes": "",
    "lat": 37.3167,
    "lng": 26.55
  },
  {
    "id": "c207",
    "name": "Municipality of Patra",
    "category": "Municipality",
    "contact": "",
    "role": "",
    "email": "",
    "phone": "",
    "afm": "",
    "address": "",
    "notes": "",
    "lat": 38.2466,
    "lng": 21.7346
  },
  {
    "id": "c208",
    "name": "Municipality of Pavlos Melas",
    "category": "Municipality",
    "contact": "",
    "role": "",
    "email": "",
    "phone": "",
    "afm": "",
    "address": "",
    "notes": "",
    "lat": 40.6833,
    "lng": 22.9167
  },
  {
    "id": "c209",
    "name": "Municipality of Paxi",
    "category": "Municipality",
    "contact": "",
    "role": "",
    "email": "",
    "phone": "",
    "afm": "",
    "address": "",
    "notes": "",
    "lat": 39.2,
    "lng": 20.1667
  },
  {
    "id": "c210",
    "name": "Municipality of Pella",
    "category": "Municipality",
    "contact": "",
    "role": "",
    "email": "",
    "phone": "",
    "afm": "",
    "address": "",
    "notes": "",
    "lat": 40.7667,
    "lng": 22.5167
  },
  {
    "id": "c211",
    "name": "Municipality of Penteli",
    "category": "Municipality",
    "contact": "",
    "role": "",
    "email": "",
    "phone": "",
    "afm": "",
    "address": "",
    "notes": "",
    "lat": 38.05,
    "lng": 23.8667
  },
  {
    "id": "c212",
    "name": "Municipality of Perama",
    "category": "Municipality",
    "contact": "",
    "role": "",
    "email": "",
    "phone": "",
    "afm": "",
    "address": "",
    "notes": "",
    "lat": 37.9667,
    "lng": 23.5667
  },
  {
    "id": "c213",
    "name": "Municipality of Peristeri",
    "category": "Municipality",
    "contact": "",
    "role": "",
    "email": "",
    "phone": "",
    "afm": "",
    "address": "",
    "notes": "",
    "lat": 38.0167,
    "lng": 23.6833
  },
  {
    "id": "c214",
    "name": "Municipality of Petroupoli",
    "category": "Municipality",
    "contact": "",
    "role": "",
    "email": "",
    "phone": "",
    "afm": "",
    "address": "",
    "notes": "",
    "lat": 38.0333,
    "lng": 23.6833
  },
  {
    "id": "c215",
    "name": "Municipality of Piraeus",
    "category": "Municipality",
    "contact": "",
    "role": "",
    "email": "",
    "phone": "",
    "afm": "",
    "address": "",
    "notes": "",
    "lat": 37.9475,
    "lng": 23.6425
  },
  {
    "id": "c216",
    "name": "Municipality of Platanias",
    "category": "Municipality",
    "contact": "",
    "role": "",
    "email": "",
    "phone": "",
    "afm": "",
    "address": "",
    "notes": "",
    "lat": 35.5167,
    "lng": 23.95
  },
  {
    "id": "c217",
    "name": "Municipality of Pogoni",
    "category": "Municipality",
    "contact": "",
    "role": "",
    "email": "",
    "phone": "",
    "afm": "",
    "address": "",
    "notes": "",
    "lat": 39.75,
    "lng": 20.65
  },
  {
    "id": "c218",
    "name": "Municipality of Polygyros",
    "category": "Municipality",
    "contact": "",
    "role": "",
    "email": "",
    "phone": "",
    "afm": "",
    "address": "",
    "notes": "",
    "lat": 40.3667,
    "lng": 23.4333
  },
  {
    "id": "c219",
    "name": "Municipality of Prespes",
    "category": "Municipality",
    "contact": "",
    "role": "",
    "email": "",
    "phone": "",
    "afm": "",
    "address": "",
    "notes": "",
    "lat": 40.75,
    "lng": 21.0833
  },
  {
    "id": "c220",
    "name": "Municipality of Psara",
    "category": "Municipality",
    "contact": "",
    "role": "",
    "email": "",
    "phone": "",
    "afm": "",
    "address": "",
    "notes": "",
    "lat": 38.55,
    "lng": 25.5667
  },
  {
    "id": "c221",
    "name": "Municipality of Pyli",
    "category": "Municipality",
    "contact": "",
    "role": "",
    "email": "",
    "phone": "",
    "afm": "",
    "address": "",
    "notes": "",
    "lat": 39.55,
    "lng": 21.6167
  },
  {
    "id": "c222",
    "name": "Municipality of Pylos-Nestor",
    "category": "Municipality",
    "contact": "",
    "role": "",
    "email": "",
    "phone": "",
    "afm": "",
    "address": "",
    "notes": "",
    "lat": 36.9167,
    "lng": 21.6833
  },
  {
    "id": "c223",
    "name": "Municipality of Pyrgos",
    "category": "Municipality",
    "contact": "",
    "role": "",
    "email": "",
    "phone": "",
    "afm": "",
    "address": "",
    "notes": "",
    "lat": 37.6736,
    "lng": 21.44
  },
  {
    "id": "c224",
    "name": "Municipality of Rafina-Pikermi",
    "category": "Municipality",
    "contact": "",
    "role": "",
    "email": "",
    "phone": "",
    "afm": "",
    "address": "",
    "notes": "",
    "lat": 38.0167,
    "lng": 24
  },
  {
    "id": "c225",
    "name": "Municipality of Rethymno",
    "category": "Municipality",
    "contact": "",
    "role": "",
    "email": "",
    "phone": "",
    "afm": "",
    "address": "",
    "notes": "",
    "lat": 35.3667,
    "lng": 24.4722
  },
  {
    "id": "c226",
    "name": "Municipality of Rhodos",
    "category": "Municipality",
    "contact": "",
    "role": "",
    "email": "",
    "phone": "",
    "afm": "",
    "address": "",
    "notes": "",
    "lat": 36.4341,
    "lng": 28.2178
  },
  {
    "id": "c228",
    "name": "Municipality of Salamina",
    "category": "Municipality",
    "contact": "",
    "role": "",
    "email": "",
    "phone": "",
    "afm": "",
    "address": "",
    "notes": "",
    "lat": 37.95,
    "lng": 23.4833
  },
  {
    "id": "c229",
    "name": "Municipality of Sami",
    "category": "Municipality",
    "contact": "",
    "role": "",
    "email": "",
    "phone": "",
    "afm": "",
    "address": "",
    "notes": "",
    "lat": 38.25,
    "lng": 20.6333
  },
  {
    "id": "c231",
    "name": "Municipality of Serifos",
    "category": "Municipality",
    "contact": "",
    "role": "",
    "email": "",
    "phone": "",
    "afm": "",
    "address": "",
    "notes": "",
    "lat": 37.15,
    "lng": 24.5
  },
  {
    "id": "c232",
    "name": "Municipality of Sfakia",
    "category": "Municipality",
    "contact": "",
    "role": "",
    "email": "",
    "phone": "",
    "afm": "",
    "address": "",
    "notes": "",
    "lat": 35.2,
    "lng": 24.1333
  },
  {
    "id": "c233",
    "name": "Municipality of Siatista",
    "category": "Municipality",
    "contact": "",
    "role": "",
    "email": "",
    "phone": "",
    "afm": "",
    "address": "",
    "notes": "",
    "lat": 40.25,
    "lng": 21.55
  },
  {
    "id": "c234",
    "name": "Municipality of Sikinos",
    "category": "Municipality",
    "contact": "",
    "role": "",
    "email": "",
    "phone": "",
    "afm": "",
    "address": "",
    "notes": "",
    "lat": 36.6833,
    "lng": 25.1167
  },
  {
    "id": "c235",
    "name": "Municipality of Sikyon",
    "category": "Municipality",
    "contact": "",
    "role": "",
    "email": "",
    "phone": "",
    "afm": "",
    "address": "",
    "notes": "",
    "lat": 38,
    "lng": 22.7333
  },
  {
    "id": "c236",
    "name": "Municipality of Siteia",
    "category": "Municipality",
    "contact": "",
    "role": "",
    "email": "",
    "phone": "",
    "afm": "",
    "address": "",
    "notes": "",
    "lat": 35.2033,
    "lng": 26.1031
  },
  {
    "id": "c237",
    "name": "Municipality of Skydra",
    "category": "Municipality",
    "contact": "",
    "role": "",
    "email": "",
    "phone": "",
    "afm": "",
    "address": "",
    "notes": "",
    "lat": 40.7833,
    "lng": 22.15
  },
  {
    "id": "c238",
    "name": "Municipality of Sofades",
    "category": "Municipality",
    "contact": "",
    "role": "",
    "email": "",
    "phone": "",
    "afm": "",
    "address": "",
    "notes": "",
    "lat": 39.3333,
    "lng": 22.1
  },
  {
    "id": "c239",
    "name": "Municipality of Soufli",
    "category": "Municipality",
    "contact": "",
    "role": "",
    "email": "",
    "phone": "",
    "afm": "",
    "address": "",
    "notes": "",
    "lat": 41.1833,
    "lng": 26.2833
  },
  {
    "id": "c240",
    "name": "Municipality of Souli",
    "category": "Municipality",
    "contact": "",
    "role": "",
    "email": "",
    "phone": "",
    "afm": "",
    "address": "",
    "notes": "",
    "lat": 39.35,
    "lng": 20.5833
  },
  {
    "id": "c241",
    "name": "Municipality of Spata-Artemida",
    "category": "Municipality",
    "contact": "",
    "role": "",
    "email": "",
    "phone": "",
    "afm": "",
    "address": "",
    "notes": "",
    "lat": 37.9667,
    "lng": 23.9167
  },
  {
    "id": "c242",
    "name": "Municipality of Stylida",
    "category": "Municipality",
    "contact": "",
    "role": "",
    "email": "",
    "phone": "",
    "afm": "",
    "address": "",
    "notes": "",
    "lat": 38.9167,
    "lng": 22.6167
  },
  {
    "id": "c243",
    "name": "Municipality of Symi",
    "category": "Municipality",
    "contact": "",
    "role": "",
    "email": "",
    "phone": "",
    "afm": "",
    "address": "",
    "notes": "",
    "lat": 36.6167,
    "lng": 27.8333
  },
  {
    "id": "c244",
    "name": "Municipality of Syros-Ermoupoli",
    "category": "Municipality",
    "contact": "",
    "role": "",
    "email": "",
    "phone": "",
    "afm": "",
    "address": "",
    "notes": "",
    "lat": 37.45,
    "lng": 24.9167
  },
  {
    "id": "c245",
    "name": "Municipality of Tanagra",
    "category": "Municipality",
    "contact": "",
    "role": "",
    "email": "",
    "phone": "",
    "afm": "",
    "address": "",
    "notes": "",
    "lat": 38.3167,
    "lng": 23.5
  },
  {
    "id": "c246",
    "name": "Municipality of Tempi",
    "category": "Municipality",
    "contact": "",
    "role": "",
    "email": "",
    "phone": "",
    "afm": "",
    "address": "",
    "notes": "",
    "lat": 39.9,
    "lng": 22.5167
  },
  {
    "id": "c247",
    "name": "Municipality of Thasos",
    "category": "Municipality",
    "contact": "",
    "role": "",
    "email": "",
    "phone": "",
    "afm": "",
    "address": "",
    "notes": "",
    "lat": 40.75,
    "lng": 24.7
  },
  {
    "id": "c248",
    "name": "Municipality of Thermi",
    "category": "Municipality",
    "contact": "",
    "role": "",
    "email": "",
    "phone": "",
    "afm": "",
    "address": "",
    "notes": "",
    "lat": 40.55,
    "lng": 23.0167
  },
  {
    "id": "c249",
    "name": "Municipality of Thessaloniki",
    "category": "Municipality",
    "contact": "",
    "role": "",
    "email": "",
    "phone": "",
    "afm": "",
    "address": "",
    "notes": "",
    "lat": 40.6401,
    "lng": 22.9444
  },
  {
    "id": "c250",
    "name": "Municipality of Thiva",
    "category": "Municipality",
    "contact": "",
    "role": "",
    "email": "",
    "phone": "",
    "afm": "",
    "address": "",
    "notes": "",
    "lat": 38.3194,
    "lng": 23.3186
  },
  {
    "id": "c251",
    "name": "Municipality of Tilos",
    "category": "Municipality",
    "contact": "",
    "role": "",
    "email": "",
    "phone": "",
    "afm": "",
    "address": "",
    "notes": "",
    "lat": 36.4167,
    "lng": 27.3833
  },
  {
    "id": "c252",
    "name": "Municipality of Tirnavos",
    "category": "Municipality",
    "contact": "",
    "role": "",
    "email": "",
    "phone": "",
    "afm": "",
    "address": "",
    "notes": "",
    "lat": 39.75,
    "lng": 22.2833
  },
  {
    "id": "c253",
    "name": "Municipality of Trikkaion",
    "category": "Municipality",
    "contact": "",
    "role": "",
    "email": "",
    "phone": "",
    "afm": "",
    "address": "",
    "notes": "",
    "lat": 39.5556,
    "lng": 21.7678
  },
  {
    "id": "c254",
    "name": "Municipality of Tripoli",
    "category": "Municipality",
    "contact": "",
    "role": "",
    "email": "",
    "phone": "",
    "afm": "",
    "address": "",
    "notes": "",
    "lat": 37.51,
    "lng": 22.3794
  },
  {
    "id": "c256",
    "name": "Municipality of Voio",
    "category": "Municipality",
    "contact": "",
    "role": "",
    "email": "",
    "phone": "",
    "afm": "",
    "address": "",
    "notes": "",
    "lat": 40.1167,
    "lng": 21.6333
  },
  {
    "id": "c257",
    "name": "Municipality of Volos",
    "category": "Municipality",
    "contact": "",
    "role": "",
    "email": "",
    "phone": "",
    "afm": "",
    "address": "",
    "notes": "",
    "lat": 39.3601,
    "lng": 22.9428
  },
  {
    "id": "c258",
    "name": "Municipality of Volvi",
    "category": "Municipality",
    "contact": "",
    "role": "",
    "email": "",
    "phone": "",
    "afm": "",
    "address": "",
    "notes": "",
    "lat": 40.6833,
    "lng": 23.4167
  },
  {
    "id": "c259",
    "name": "Municipality of Vyronas",
    "category": "Municipality",
    "contact": "",
    "role": "",
    "email": "",
    "phone": "",
    "afm": "",
    "address": "",
    "notes": "",
    "lat": 37.95,
    "lng": 23.7667
  },
  {
    "id": "c260",
    "name": "Municipality of Xanthi",
    "category": "Municipality",
    "contact": "",
    "role": "",
    "email": "",
    "phone": "",
    "afm": "",
    "address": "",
    "notes": "",
    "lat": 41.1333,
    "lng": 24.8833
  },
  {
    "id": "c261",
    "name": "Municipality of Zagora-Mouresi",
    "category": "Municipality",
    "contact": "",
    "role": "",
    "email": "",
    "phone": "",
    "afm": "",
    "address": "",
    "notes": "",
    "lat": 39.45,
    "lng": 23.1167
  },
  {
    "id": "c262",
    "name": "Municipality of Zakynthos",
    "category": "Municipality",
    "contact": "",
    "role": "",
    "email": "",
    "phone": "",
    "afm": "",
    "address": "",
    "notes": "",
    "lat": 37.7833,
    "lng": 20.9
  },
  {
    "id": "c263",
    "name": "Municipality of Zitsa",
    "category": "Municipality",
    "contact": "",
    "role": "",
    "email": "",
    "phone": "",
    "afm": "",
    "address": "",
    "notes": "",
    "lat": 39.75,
    "lng": 20.6167
  },
  {
    "id": "c264",
    "name": "Municipality of Zografou",
    "category": "Municipality",
    "contact": "",
    "role": "",
    "email": "",
    "phone": "",
    "afm": "",
    "address": "",
    "notes": "",
    "lat": 37.9667,
    "lng": 23.7667
  },
  {
    "id": "c265",
    "name": "Municipality of Agios Konstantinos",
    "category": "Municipality",
    "contact": "",
    "role": "",
    "email": "",
    "phone": "",
    "afm": "",
    "address": "",
    "notes": "",
    "lat": 38.75,
    "lng": 22.85
  },
  {
    "id": "c266",
    "name": "Municipality of Amfipolis",
    "category": "Municipality",
    "contact": "",
    "role": "",
    "email": "",
    "phone": "",
    "afm": "",
    "address": "",
    "notes": "",
    "lat": 40.8167,
    "lng": 23.8667
  },
  {
    "id": "c267",
    "name": "Municipality of Nea Makri",
    "category": "Municipality",
    "contact": "",
    "role": "",
    "email": "",
    "phone": "",
    "afm": "",
    "address": "",
    "notes": "",
    "lat": 38.0833,
    "lng": 24
  },
  {
    "id": "c268",
    "name": "Municipality of Skiathos",
    "category": "Municipality",
    "contact": "",
    "role": "",
    "email": "",
    "phone": "",
    "afm": "",
    "address": "",
    "notes": "",
    "lat": 39.1667,
    "lng": 23.5
  },
  {
    "id": "c269",
    "name": "Municipality of Skopelos",
    "category": "Municipality",
    "contact": "",
    "role": "",
    "email": "",
    "phone": "",
    "afm": "",
    "address": "",
    "notes": "",
    "lat": 39.1167,
    "lng": 23.7333
  },
  {
    "id": "c270",
    "name": "Municipality of Skyros",
    "category": "Municipality",
    "contact": "",
    "role": "",
    "email": "",
    "phone": "",
    "afm": "",
    "address": "",
    "notes": "",
    "lat": 38.9167,
    "lng": 24.5667
  },
  {
    "id": "c271",
    "name": "Municipality of Sparta",
    "category": "Municipality",
    "contact": "",
    "role": "",
    "email": "",
    "phone": "",
    "afm": "",
    "address": "",
    "notes": "",
    "lat": 37.075,
    "lng": 22.4306
  },
  {
    "id": "c272",
    "name": "Municipality of Spata",
    "category": "Municipality",
    "contact": "",
    "role": "",
    "email": "",
    "phone": "",
    "afm": "",
    "address": "",
    "notes": "",
    "lat": 37.9667,
    "lng": 23.9167
  },
  {
    "id": "c273",
    "name": "Municipality of Dion-Olympos",
    "category": "Municipality",
    "contact": "",
    "role": "",
    "email": "",
    "phone": "",
    "afm": "",
    "address": "",
    "notes": "",
    "lat": 40.2167,
    "lng": 22.4833
  },
  {
    "id": "c274",
    "name": "Municipality of Nea Anchialos",
    "category": "Municipality",
    "contact": "",
    "role": "",
    "email": "",
    "phone": "",
    "afm": "",
    "address": "",
    "notes": "",
    "lat": 39.2667,
    "lng": 22.8167
  },
  {
    "id": "c275",
    "name": "Municipality of Mantoudiou-Limnis-Agiou Georgiou",
    "category": "Municipality",
    "contact": "",
    "role": "",
    "email": "",
    "phone": "",
    "afm": "",
    "address": "",
    "notes": "",
    "lat": 38.7333,
    "lng": 23.2333
  },
  {
    "id": "c277",
    "name": "Municipality of Elafonissos",
    "category": "Municipality",
    "contact": "",
    "role": "",
    "email": "",
    "phone": "",
    "afm": "",
    "address": "",
    "notes": "",
    "lat": 36.5,
    "lng": 22.9833
  },
  {
    "id": "c278",
    "name": "Municipality of Veria",
    "category": "Municipality",
    "contact": "",
    "role": "",
    "email": "",
    "phone": "",
    "afm": "",
    "address": "",
    "notes": "",
    "lat": 40.5236,
    "lng": 22.2036
  },
  {
    "id": "c279",
    "name": "Municipality of Naoussa Imathias",
    "category": "Municipality",
    "contact": "",
    "role": "",
    "email": "",
    "phone": "",
    "afm": "",
    "address": "",
    "notes": "",
    "lat": 40.6333,
    "lng": 22.0667
  },
  {
    "id": "c281",
    "name": "Municipality of Korydallos",
    "category": "Municipality",
    "contact": "",
    "role": "",
    "email": "",
    "phone": "",
    "afm": "",
    "address": "",
    "notes": "",
    "lat": 37.9833,
    "lng": 23.65
  },
  {
    "id": "c282",
    "name": "Municipality of Aigina",
    "category": "Municipality",
    "contact": "",
    "role": "",
    "email": "",
    "phone": "",
    "afm": "",
    "address": "",
    "notes": "",
    "lat": 37.75,
    "lng": 23.4167
  },
  {
    "id": "c283",
    "name": "Municipality of Aliartos-Thespies",
    "category": "Municipality",
    "contact": "",
    "role": "",
    "email": "",
    "phone": "",
    "afm": "",
    "address": "",
    "notes": "",
    "lat": 38.3667,
    "lng": 23.1
  },
  {
    "id": "c284",
    "name": "Municipality of Alonnisos",
    "category": "Municipality",
    "contact": "",
    "role": "",
    "email": "",
    "phone": "",
    "afm": "",
    "address": "",
    "notes": "",
    "lat": 39.1667,
    "lng": 23.8667
  },
  {
    "id": "c285",
    "name": "Municipality of Amphilochias",
    "category": "Municipality",
    "contact": "",
    "role": "",
    "email": "",
    "phone": "",
    "afm": "",
    "address": "",
    "notes": "",
    "lat": 38.85,
    "lng": 21.1667
  },
  {
    "id": "c286",
    "name": "Municipality of Deskati",
    "category": "Municipality",
    "contact": "",
    "role": "",
    "email": "",
    "phone": "",
    "afm": "",
    "address": "",
    "notes": "",
    "lat": 39.9167,
    "lng": 21.8167
  },
  {
    "id": "c287",
    "name": "Municipality of Drama",
    "category": "Municipality",
    "contact": "",
    "role": "",
    "email": "",
    "phone": "",
    "afm": "",
    "address": "",
    "notes": "",
    "lat": 41.15,
    "lng": 24.15
  },
  {
    "id": "c288",
    "name": "Municipality of Halkidona",
    "category": "Municipality",
    "contact": "",
    "role": "",
    "email": "",
    "phone": "",
    "afm": "",
    "address": "",
    "notes": "",
    "lat": 40.6167,
    "lng": 22.55
  },
  {
    "id": "c289",
    "name": "Municipality of Kalamaria",
    "category": "Municipality",
    "contact": "",
    "role": "",
    "email": "",
    "phone": "",
    "afm": "",
    "address": "",
    "notes": "",
    "lat": 40.5833,
    "lng": 22.9667
  },
  {
    "id": "c290",
    "name": "Municipality of Kymi-Aliveri",
    "category": "Municipality",
    "contact": "",
    "role": "",
    "email": "",
    "phone": "",
    "afm": "",
    "address": "",
    "notes": "",
    "lat": 38.6333,
    "lng": 24.1
  },
  {
    "id": "c291",
    "name": "Municipality of Langadas",
    "category": "Municipality",
    "contact": "",
    "role": "",
    "email": "",
    "phone": "",
    "afm": "",
    "address": "",
    "notes": "",
    "lat": 40.75,
    "lng": 23.0667
  },
  {
    "id": "c292",
    "name": "Municipality of Mandra-Eidyllia",
    "category": "Municipality",
    "contact": "",
    "role": "",
    "email": "",
    "phone": "",
    "afm": "",
    "address": "",
    "notes": "",
    "lat": 38.0667,
    "lng": 23.5
  },
  {
    "id": "c293",
    "name": "Municipality of Marathonas",
    "category": "Municipality",
    "contact": "",
    "role": "",
    "email": "",
    "phone": "",
    "afm": "",
    "address": "",
    "notes": "",
    "lat": 38.15,
    "lng": 23.9667
  },
  {
    "id": "c294",
    "name": "Municipality of Naoussa",
    "category": "Municipality",
    "contact": "",
    "role": "",
    "email": "",
    "phone": "",
    "afm": "",
    "address": "",
    "notes": "",
    "lat": 40.6333,
    "lng": 22.0667
  },
  {
    "id": "c295",
    "name": "Municipality of Preveza",
    "category": "Municipality",
    "contact": "",
    "role": "",
    "email": "",
    "phone": "",
    "afm": "",
    "address": "",
    "notes": "",
    "lat": 38.9583,
    "lng": 20.7519
  },
  {
    "id": "c296",
    "name": "Municipality of Vari-Voula-Vouliagmeni",
    "category": "Municipality",
    "contact": "",
    "role": "",
    "email": "",
    "phone": "",
    "afm": "",
    "address": "",
    "notes": "",
    "lat": 37.8333,
    "lng": 23.7833
  },
  {
    "id": "c297",
    "name": "Municipality of Xylokastro-Evrostini",
    "category": "Municipality",
    "contact": "",
    "role": "",
    "email": "",
    "phone": "",
    "afm": "",
    "address": "",
    "notes": "",
    "lat": 37.9867,
    "lng": 22.6433
  },
  {
    "id": "c298",
    "name": "Municipality of Agia",
    "category": "Municipality",
    "contact": "",
    "email": "",
    "phone": "",
    "address": "",
    "notes": "",
    "lat": 39.7167,
    "lng": 22.3333
  },
  {
    "id": "c299",
    "name": "Municipality of Agia Paraskevi",
    "category": "Municipality",
    "contact": "",
    "email": "",
    "phone": "",
    "address": "",
    "notes": "",
    "lat": 37.9947,
    "lng": 23.8269
  },
  {
    "id": "c300",
    "name": "Municipality of Agkistri",
    "category": "Municipality",
    "contact": "",
    "email": "",
    "phone": "",
    "address": "",
    "notes": "",
    "lat": 37.6972,
    "lng": 23.3439
  },
  {
    "id": "c301",
    "name": "Municipality of Aktiou-Vonitsas",
    "category": "Municipality",
    "contact": "",
    "email": "",
    "phone": "",
    "address": "",
    "notes": "",
    "lat": 38.9167,
    "lng": 20.8833
  },
  {
    "id": "c302",
    "name": "Municipality of Amari",
    "category": "Municipality",
    "contact": "",
    "email": "",
    "phone": "",
    "address": "",
    "notes": "",
    "lat": 35.2167,
    "lng": 24.6167
  },
  {
    "id": "c303",
    "name": "Municipality of Andritsaina-Krestena",
    "category": "Municipality",
    "contact": "",
    "email": "",
    "phone": "",
    "address": "",
    "notes": "",
    "lat": 37.4667,
    "lng": 21.9167
  },
  {
    "id": "c304",
    "name": "Municipality of Anogeion",
    "category": "Municipality",
    "contact": "",
    "email": "",
    "phone": "",
    "address": "",
    "notes": "",
    "lat": 35.2975,
    "lng": 24.8736
  },
  {
    "id": "c305",
    "name": "Municipality of Argos Orestiko",
    "category": "Municipality",
    "contact": "",
    "email": "",
    "phone": "",
    "address": "",
    "notes": "",
    "lat": 40.45,
    "lng": 21.2667
  },
  {
    "id": "c306",
    "name": "Municipality of Arrianon",
    "category": "Municipality",
    "contact": "",
    "email": "",
    "phone": "",
    "address": "",
    "notes": "",
    "lat": 41.2167,
    "lng": 25.5
  },
  {
    "id": "c307",
    "name": "Municipality of Archaia Olympia",
    "category": "Municipality",
    "contact": "",
    "email": "",
    "phone": "",
    "address": "",
    "notes": "",
    "lat": 37.6383,
    "lng": 21.63
  },
  {
    "id": "c308",
    "name": "Municipality of Archanon Asterousion",
    "category": "Municipality",
    "contact": "",
    "email": "",
    "phone": "",
    "address": "",
    "notes": "",
    "lat": 35.0333,
    "lng": 25.2
  },
  {
    "id": "c309",
    "name": "Municipality of Velvento",
    "category": "Municipality",
    "contact": "",
    "email": "",
    "phone": "",
    "address": "",
    "notes": "",
    "lat": 40.25,
    "lng": 22.0667
  },
  {
    "id": "c310",
    "name": "Municipality of Velo-Vochas",
    "category": "Municipality",
    "contact": "",
    "email": "",
    "phone": "",
    "address": "",
    "notes": "",
    "lat": 37.9167,
    "lng": 22.9
  },
  {
    "id": "c311",
    "name": "Municipality of Viannou",
    "category": "Municipality",
    "contact": "",
    "email": "",
    "phone": "",
    "address": "",
    "notes": "",
    "lat": 35.0333,
    "lng": 25.4167
  },
  {
    "id": "c312",
    "name": "Municipality of Voreias Kerkyras",
    "category": "Municipality",
    "contact": "",
    "email": "",
    "phone": "",
    "address": "",
    "notes": "",
    "lat": 39.7833,
    "lng": 19.7167
  },
  {
    "id": "c313",
    "name": "Municipality of Voreias Kynouria",
    "category": "Municipality",
    "contact": "",
    "email": "",
    "phone": "",
    "address": "",
    "notes": "",
    "lat": 37.45,
    "lng": 22.7333
  },
  {
    "id": "c314",
    "name": "Municipality of Voreion Tzoumerkon",
    "category": "Municipality",
    "contact": "",
    "email": "",
    "phone": "",
    "address": "",
    "notes": "",
    "lat": 39.55,
    "lng": 21.1667
  },
  {
    "id": "c315",
    "name": "Municipality of Vrilission",
    "category": "Municipality",
    "contact": "",
    "email": "",
    "phone": "",
    "address": "",
    "notes": "",
    "lat": 38.0333,
    "lng": 23.8333
  },
  {
    "id": "c316",
    "name": "Municipality of Gavdos",
    "category": "Municipality",
    "contact": "",
    "email": "",
    "phone": "",
    "address": "",
    "notes": "",
    "lat": 34.85,
    "lng": 24.0833
  },
  {
    "id": "c317",
    "name": "Municipality of Georgiou Karaiskaki",
    "category": "Municipality",
    "contact": "",
    "email": "",
    "phone": "",
    "address": "",
    "notes": "",
    "lat": 39.3167,
    "lng": 21.1333
  },
  {
    "id": "c318",
    "name": "Municipality of Gortynia",
    "category": "Municipality",
    "contact": "",
    "email": "",
    "phone": "",
    "address": "",
    "notes": "",
    "lat": 37.5833,
    "lng": 22
  },
  {
    "id": "c319",
    "name": "Municipality of Dirfyon-Messapion",
    "category": "Municipality",
    "contact": "",
    "email": "",
    "phone": "",
    "address": "",
    "notes": "",
    "lat": 38.4667,
    "lng": 23.7
  },
  {
    "id": "c320",
    "name": "Municipality of Doxato",
    "category": "Municipality",
    "contact": "",
    "email": "",
    "phone": "",
    "address": "",
    "notes": "",
    "lat": 41.1167,
    "lng": 24.2333
  },
  {
    "id": "c321",
    "name": "Municipality of Dytikis Lesvou",
    "category": "Municipality",
    "contact": "",
    "email": "",
    "phone": "",
    "address": "",
    "notes": "",
    "lat": 39.25,
    "lng": 26.2167
  },
  {
    "id": "c322",
    "name": "Municipality of Dytikis Manis",
    "category": "Municipality",
    "contact": "",
    "email": "",
    "phone": "",
    "address": "",
    "notes": "",
    "lat": 36.8833,
    "lng": 22.2333
  },
  {
    "id": "c323",
    "name": "Municipality of Dytikis Samou",
    "category": "Municipality",
    "contact": "",
    "email": "",
    "phone": "",
    "address": "",
    "notes": "",
    "lat": 37.7833,
    "lng": 26.7
  },
  {
    "id": "c324",
    "name": "Municipality of Doridas",
    "category": "Municipality",
    "contact": "",
    "email": "",
    "phone": "",
    "address": "",
    "notes": "",
    "lat": 38.5667,
    "lng": 22.0333
  },
  {
    "id": "c325",
    "name": "Municipality of Eretria",
    "category": "Municipality",
    "contact": "",
    "email": "",
    "phone": "",
    "address": "",
    "notes": "",
    "lat": 38.3956,
    "lng": 23.7933
  },
  {
    "id": "c326",
    "name": "Municipality of Zacharos",
    "category": "Municipality",
    "contact": "",
    "email": "",
    "phone": "",
    "address": "",
    "notes": "",
    "lat": 37.4833,
    "lng": 21.65
  },
  {
    "id": "c327",
    "name": "Municipality of Zirou",
    "category": "Municipality",
    "contact": "",
    "email": "",
    "phone": "",
    "address": "",
    "notes": "",
    "lat": 39.2167,
    "lng": 20.9833
  },
  {
    "id": "c328",
    "name": "Municipality of Thermos",
    "category": "Municipality",
    "contact": "",
    "email": "",
    "phone": "",
    "address": "",
    "notes": "",
    "lat": 38.5667,
    "lng": 21.7167
  },
  {
    "id": "c329",
    "name": "Municipality of Messolonghi",
    "category": "Municipality",
    "contact": "",
    "email": "",
    "phone": "",
    "address": "",
    "notes": "",
    "lat": 38.3725,
    "lng": 21.4269
  },
  {
    "id": "c330",
    "name": "Municipality of Ilion",
    "category": "Municipality",
    "contact": "",
    "email": "",
    "phone": "",
    "address": "",
    "notes": "",
    "lat": 38.0333,
    "lng": 23.7
  },
  {
    "id": "c331",
    "name": "Municipality of Istiaia-Aidipsos",
    "category": "Municipality",
    "contact": "",
    "email": "",
    "phone": "",
    "address": "",
    "notes": "",
    "lat": 38.95,
    "lng": 23.1333
  },
  {
    "id": "c332",
    "name": "Municipality of Kamena Vourla",
    "category": "Municipality",
    "contact": "",
    "email": "",
    "phone": "",
    "address": "",
    "notes": "",
    "lat": 38.775,
    "lng": 22.775
  },
  {
    "id": "c333",
    "name": "Municipality of Kassandra",
    "category": "Municipality",
    "contact": "",
    "email": "",
    "phone": "",
    "address": "",
    "notes": "",
    "lat": 40.0333,
    "lng": 23.4167
  },
  {
    "id": "c334",
    "name": "Municipality of Kato Nevrokopi",
    "category": "Municipality",
    "contact": "",
    "email": "",
    "phone": "",
    "address": "",
    "notes": "",
    "lat": 41.35,
    "lng": 23.8667
  },
  {
    "id": "c335",
    "name": "Municipality of Kentrikon Tzoumerkon",
    "category": "Municipality",
    "contact": "",
    "email": "",
    "phone": "",
    "address": "",
    "notes": "",
    "lat": 39.4167,
    "lng": 21.2167
  },
  {
    "id": "c336",
    "name": "Municipality of Kissamos",
    "category": "Municipality",
    "contact": "",
    "email": "",
    "phone": "",
    "address": "",
    "notes": "",
    "lat": 35.5,
    "lng": 23.65
  },
  {
    "id": "c337",
    "name": "Municipality of Kordelio-Evosmos",
    "category": "Municipality",
    "contact": "",
    "email": "",
    "phone": "",
    "address": "",
    "notes": "",
    "lat": 40.6667,
    "lng": 22.9333
  },
  {
    "id": "c338",
    "name": "Municipality of Kythira",
    "category": "Municipality",
    "contact": "",
    "email": "",
    "phone": "",
    "address": "",
    "notes": "",
    "lat": 36.15,
    "lng": 22.9833
  },
  {
    "id": "c339",
    "name": "Municipality of Lipsi",
    "category": "Municipality",
    "contact": "",
    "email": "",
    "phone": "",
    "address": "",
    "notes": "",
    "lat": 37.2969,
    "lng": 26.7583
  },
  {
    "id": "c340",
    "name": "Municipality of Lixouri",
    "category": "Municipality",
    "contact": "",
    "email": "",
    "phone": "",
    "address": "",
    "notes": "",
    "lat": 38.2,
    "lng": 20.4333
  },
  {
    "id": "c341",
    "name": "Municipality of Limni Plastira",
    "category": "Municipality",
    "contact": "",
    "email": "",
    "phone": "",
    "address": "",
    "notes": "",
    "lat": 39.2833,
    "lng": 21.7667
  },
  {
    "id": "c342",
    "name": "Municipality of Megisti",
    "category": "Municipality",
    "contact": "",
    "email": "",
    "phone": "",
    "address": "",
    "notes": "",
    "lat": 36.15,
    "lng": 29.5833
  },
  {
    "id": "c343",
    "name": "Municipality of Metamorfosi",
    "category": "Municipality",
    "contact": "",
    "email": "",
    "phone": "",
    "address": "",
    "notes": "",
    "lat": 38.0667,
    "lng": 23.7667
  },
  {
    "id": "c344",
    "name": "Municipality of Mykis",
    "category": "Municipality",
    "contact": "",
    "email": "",
    "phone": "",
    "address": "",
    "notes": "",
    "lat": 41.1833,
    "lng": 24.9667
  },
  {
    "id": "c345",
    "name": "Municipality of Mylopotamos",
    "category": "Municipality",
    "contact": "",
    "email": "",
    "phone": "",
    "address": "",
    "notes": "",
    "lat": 35.3667,
    "lng": 24.6833
  },
  {
    "id": "c346",
    "name": "Municipality of Mytilini",
    "category": "Municipality",
    "contact": "",
    "email": "",
    "phone": "",
    "address": "",
    "notes": "",
    "lat": 39.1,
    "lng": 26.55
  },
  {
    "id": "c347",
    "name": "Municipality of Nestorio",
    "category": "Municipality",
    "contact": "",
    "email": "",
    "phone": "",
    "address": "",
    "notes": "",
    "lat": 40.3,
    "lng": 21.0667
  },
  {
    "id": "c348",
    "name": "Municipality of Nikolaou Skoufa",
    "category": "Municipality",
    "contact": "",
    "email": "",
    "phone": "",
    "address": "",
    "notes": "",
    "lat": 39.1667,
    "lng": 21.0333
  },
  {
    "id": "c349",
    "name": "Municipality of Notias Kerkyras",
    "category": "Municipality",
    "contact": "",
    "email": "",
    "phone": "",
    "address": "",
    "notes": "",
    "lat": 39.4167,
    "lng": 19.9167
  },
  {
    "id": "c350",
    "name": "Municipality of Notias Kynouria",
    "category": "Municipality",
    "contact": "",
    "email": "",
    "phone": "",
    "address": "",
    "notes": "",
    "lat": 37.1667,
    "lng": 22.85
  },
  {
    "id": "c351",
    "name": "Municipality of Notiou Piliou",
    "category": "Municipality",
    "contact": "",
    "email": "",
    "phone": "",
    "address": "",
    "notes": "",
    "lat": 39.0667,
    "lng": 23.3333
  },
  {
    "id": "c352",
    "name": "Municipality of Xiromerou",
    "category": "Municipality",
    "contact": "",
    "email": "",
    "phone": "",
    "address": "",
    "notes": "",
    "lat": 38.65,
    "lng": 21.2167
  },
  {
    "id": "c353",
    "name": "Municipality of Orchomenos",
    "category": "Municipality",
    "contact": "",
    "email": "",
    "phone": "",
    "address": "",
    "notes": "",
    "lat": 38.4894,
    "lng": 22.9736
  },
  {
    "id": "c354",
    "name": "Municipality of Paggaio",
    "category": "Municipality",
    "contact": "",
    "email": "",
    "phone": "",
    "address": "",
    "notes": "",
    "lat": 40.8833,
    "lng": 24.1
  },
  {
    "id": "c355",
    "name": "Municipality of Paionia",
    "category": "Municipality",
    "contact": "",
    "email": "",
    "phone": "",
    "address": "",
    "notes": "",
    "lat": 41.05,
    "lng": 22.6833
  },
  {
    "id": "c356",
    "name": "Municipality of Papagou-Cholargos",
    "category": "Municipality",
    "contact": "",
    "email": "",
    "phone": "",
    "address": "",
    "notes": "",
    "lat": 37.9833,
    "lng": 23.8
  },
  {
    "id": "c357",
    "name": "Municipality of Paranesti",
    "category": "Municipality",
    "contact": "",
    "email": "",
    "phone": "",
    "address": "",
    "notes": "",
    "lat": 41.2667,
    "lng": 24.5
  },
  {
    "id": "c358",
    "name": "Municipality of Pinios",
    "category": "Municipality",
    "contact": "",
    "email": "",
    "phone": "",
    "address": "",
    "notes": "",
    "lat": 37.8667,
    "lng": 21.4
  },
  {
    "id": "c359",
    "name": "Municipality of Poros",
    "category": "Municipality",
    "contact": "",
    "email": "",
    "phone": "",
    "address": "",
    "notes": "",
    "lat": 37.5,
    "lng": 23.45
  },
  {
    "id": "c360",
    "name": "Municipality of Pydnas-Kolindros",
    "category": "Municipality",
    "contact": "",
    "email": "",
    "phone": "",
    "address": "",
    "notes": "",
    "lat": 40.3333,
    "lng": 22.5333
  },
  {
    "id": "c361",
    "name": "Municipality of Pylaia-Chortiati",
    "category": "Municipality",
    "contact": "",
    "email": "",
    "phone": "",
    "address": "",
    "notes": "",
    "lat": 40.5833,
    "lng": 23
  },
  {
    "id": "c362",
    "name": "Municipality of Rigas Feraios",
    "category": "Municipality",
    "contact": "",
    "email": "",
    "phone": "",
    "address": "",
    "notes": "",
    "lat": 39.3833,
    "lng": 22.75
  },
  {
    "id": "c363",
    "name": "Municipality of Saronikos",
    "category": "Municipality",
    "contact": "",
    "email": "",
    "phone": "",
    "address": "",
    "notes": "",
    "lat": 37.75,
    "lng": 23.9333
  },
  {
    "id": "c364",
    "name": "Municipality of Servia",
    "category": "Municipality",
    "contact": "",
    "email": "",
    "phone": "",
    "address": "",
    "notes": "",
    "lat": 40.1833,
    "lng": 22
  },
  {
    "id": "c365",
    "name": "Municipality of Sifnos",
    "category": "Municipality",
    "contact": "",
    "email": "",
    "phone": "",
    "address": "",
    "notes": "",
    "lat": 36.9667,
    "lng": 24.7
  },
  {
    "id": "c366",
    "name": "Municipality of Sithonia",
    "category": "Municipality",
    "contact": "",
    "email": "",
    "phone": "",
    "address": "",
    "notes": "",
    "lat": 40.0833,
    "lng": 23.7667
  },
  {
    "id": "c367",
    "name": "Municipality of Spetses",
    "category": "Municipality",
    "contact": "",
    "email": "",
    "phone": "",
    "address": "",
    "notes": "",
    "lat": 37.2667,
    "lng": 23.15
  },
  {
    "id": "c368",
    "name": "Municipality of Trifylias",
    "category": "Municipality",
    "contact": "",
    "email": "",
    "phone": "",
    "address": "",
    "notes": "",
    "lat": 37.25,
    "lng": 21.6667
  },
  {
    "id": "c369",
    "name": "Municipality of Troizinia-Methana",
    "category": "Municipality",
    "contact": "",
    "email": "",
    "phone": "",
    "address": "",
    "notes": "",
    "lat": 37.4667,
    "lng": 23.4667
  },
  {
    "id": "c370",
    "name": "Municipality of Ydra",
    "category": "Municipality",
    "contact": "",
    "email": "",
    "phone": "",
    "address": "",
    "notes": "",
    "lat": 37.35,
    "lng": 23.4667
  },
  {
    "id": "c371",
    "name": "Municipality of Farkadonas",
    "category": "Municipality",
    "contact": "",
    "email": "",
    "phone": "",
    "address": "",
    "notes": "",
    "lat": 39.6167,
    "lng": 22.05
  },
  {
    "id": "c372",
    "name": "Municipality of Filiaton",
    "category": "Municipality",
    "contact": "",
    "email": "",
    "phone": "",
    "address": "",
    "notes": "",
    "lat": 39.6167,
    "lng": 20.3833
  },
  {
    "id": "c373",
    "name": "Municipality of Chaidari",
    "category": "Municipality",
    "contact": "",
    "email": "",
    "phone": "",
    "address": "",
    "notes": "",
    "lat": 38.0167,
    "lng": 23.6667
  },
  {
    "id": "c374",
    "name": "Municipality of Chalki",
    "category": "Municipality",
    "contact": "",
    "email": "",
    "phone": "",
    "address": "",
    "notes": "",
    "lat": 36.2167,
    "lng": 27.6
  },
  {
    "id": "c375",
    "name": "Municipality of Chalkideon",
    "category": "Municipality",
    "contact": "",
    "email": "",
    "phone": "",
    "address": "",
    "notes": "",
    "lat": 38.4636,
    "lng": 23.5997
  },
  {
    "id": "c376",
    "name": "Municipality of Chersonisos",
    "category": "Municipality",
    "contact": "",
    "email": "",
    "phone": "",
    "address": "",
    "notes": "",
    "lat": 35.3167,
    "lng": 25.4
  },
  {
    "id": "c377",
    "name": "General Hospital of Eastern Achaea (Kalavrita unit)",
    "category": "Hospital",
    "contact": "Mpekios",
    "role": "IT Director",
    "email": "",
    "phone": "2692360101",
    "afm": "",
    "address": "",
    "notes": ""
  },
  {
    "id": "c378",
    "name": "Papanikolaou General Hospital",
    "category": "Hospital",
    "contact": "",
    "role": "",
    "email": "",
    "phone": "",
    "afm": "",
    "address": "",
    "notes": ""
  },
  {
    "id": "c379",
    "name": "National Organization for Medicines",
    "category": "Public Body",
    "contact": "",
    "role": "Αναπληρωτής Προϊστάμενος Τμήματος Πληροφορικής",
    "email": "gkekas@eof.gr",
    "phone": "2132040200",
    "afm": "",
    "address": "",
    "notes": ""
  },
  {
    "id": "c380",
    "name": "Hellenic Gaming Commission (EEEP)",
    "category": "Public Body",
    "contact": "",
    "role": "",
    "email": "",
    "phone": "",
    "afm": "",
    "address": "",
    "notes": ""
  },
  {
    "id": "c381",
    "name": "Ktiriakes Ypodomes",
    "category": "Public Body",
    "contact": "Καρατζάνος Κωνσταντίνος",
    "role": "IT Manager",
    "email": "",
    "phone": "",
    "afm": "",
    "address": "",
    "notes": ""
  },
  {
    "id": "c382",
    "name": "Ελληνικό Κτηματολόγιο",
    "category": "Public Body",
    "contact": "",
    "role": "",
    "email": "",
    "phone": "",
    "afm": "",
    "address": "",
    "notes": ""
  },
  {
    "id": "c383",
    "name": "Municipal Port Fund of Paros – Antiparos",
    "category": "Public Body",
    "contact": "",
    "role": "",
    "email": "",
    "phone": "",
    "afm": "",
    "address": "",
    "notes": ""
  },
  {
    "id": "c384",
    "name": "\"Korgialenio-Benakio\" Hellenic Red Cross Hospital,",
    "category": "Hospital",
    "contact": "",
    "role": "",
    "email": "",
    "phone": "",
    "afm": "",
    "address": "",
    "notes": ""
  },
  {
    "id": "c385",
    "name": "Ministry of Maritime Affairs and Insular Policy",
    "category": "Municipality",
    "contact": "",
    "role": "",
    "email": "",
    "phone": "",
    "afm": "",
    "address": "",
    "notes": ""
  },
  {
    "id": "c385",
    "name": "National Cadastre & Mapping Agency S.A",
    "category": "Public Body",
    "contact": "",
    "role": "",
    "email": "",
    "phone": "",
    "afm": "",
    "address": "",
    "notes": ""
  },
  {
    "id": "c386",
    "name": "National Observatory of Athens",
    "category": "Public Body",
    "contact": "Κουμεντάκου Ουρανία",
    "role": "ΠΡΟΙΣΤΑΜΕΝΗ ΤΜΗΜΑΤΟΣ ΔΙΕΚΠΕΡΑΙΩΣΗΣ & ΑΡΧΕΙΟΥ, ΓΡΑΜΜΑΤΕΙΑ ΔΙΟΙΚΗΤΙΚΟΥ ΣΥΜΒΟΥΛΙΟΥ",
    "email": "ourania@noa.gr",
    "phone": "2103490122",
    "afm": "",
    "address": "Λόφος Νυμφών, Τ.Θ. 20048 - Τ.Κ. 11810, Αθήνα",
    "notes": ""
  }
]